{
  "data": [
    {
      "index": 146,
      "company_name": "Mindre kraftanläggningar",
      "location": "Trönö",
      "power_station_name": "Lundbergs kraftstation",
      "power_source": "water",
      "installed_capacity_kva": 150,
      "full_location": "Trönö, Gävleborg county, Sweden",
      "geocoding": {
        "formatted_address": "826 95 Trönö, Sweden",
        "location": {
          "lat": 61.39651219999999,
          "lng": 16.8336653
        }
      }
    },
    {
      "index": 147,
      "company_name": "Mindre kraftanläggningar",
      "location": "Trönö",
      "power_station_name": "Berge",
      "power_source": "water",
      "installed_capacity_kva": 110,
      "full_location": "Trönö, Gävleborg county, Sweden",
      "geocoding": {
        "formatted_address": "826 95 Trönö, Sweden",
        "location": {
          "lat": 61.39651219999999,
          "lng": 16.8336653
        }
      }
    },
    {
      "index": 148,
      "company_name": "Mindre kraftanläggningar",
      "location": "Trönö",
      "power_station_name": "Rappsta",
      "power_source": "water",
      "installed_capacity_kva": 220,
      "full_location": "Trönö, Gävleborg county, Sweden",
      "geocoding": {
        "formatted_address": "826 95 Trönö, Sweden",
        "location": {
          "lat": 61.39651219999999,
          "lng": 16.8336653
        }
      }
    },
    {
      "index": 149,
      "company_name": "Mindre sågverks A-B",
      "location": "Söderhamn",
      "power_station_name": "Marma hyleri",
      "power_source": "water",
      "installed_capacity_kva": 320,
      "full_location": "Söderhamn, Gävleborg county, Sweden",
      "geocoding": {
        "formatted_address": "Söderhamn, Sweden",
        "location": {
          "lat": 61.3055762,
          "lng": 17.0628102
        }
      }
    },
    {
      "index": 151,
      "company_name": "Söderhamns elektricitetsverk",
      "location": "Söderhamn",
      "power_station_name": null,
      "power_source": "steam",
      "installed_capacity_kva": 66,
      "full_location": "Söderhamn, Gävleborg county, Sweden",
      "geocoding": {
        "formatted_address": "Söderhamn, Sweden",
        "location": {
          "lat": 61.3055762,
          "lng": 17.0628102
        }
      }
    },
    {
      "index": 152,
      "company_name": "Enångers elektriska förening",
      "location": "Enånger",
      "power_station_name": "Abon. fr. Bergrykes o. Ala Nya A-B, V. Bäckmorån",
      "power_source": "subscription",
      "installed_capacity_kva": 150,
      "full_location": "Enånger, Gävleborg county, Sweden",
      "geocoding": {
        "formatted_address": "825 95 Enånger, Sweden",
        "location": {
          "lat": 61.5475511,
          "lng": 17.00571
        }
      }
    },
    {
      "index": 153,
      "company_name": "Enångers elektriska förening",
      "location": "Enånger",
      "power_station_name": "Grängojsjö",
      "power_source": "subscription",
      "installed_capacity_kva": 50,
      "full_location": "Enånger, Gävleborg county, Sweden",
      "geocoding": {
        "formatted_address": "825 95 Enånger, Sweden",
        "location": {
          "lat": 61.5475511,
          "lng": 17.00571
        }
      }
    },
    {
      "index": 156,
      "company_name": "Boda bruk",
      "location": "Boda",
      "power_station_name": null,
      "power_source": "water",
      "installed_capacity_kva": 930,
      "full_location": "Boda, Gävleborg county, Sweden",
      "geocoding": {
        "formatted_address": "813 95 Bodås, Sweden",
        "location": {
          "lat": 60.4287313,
          "lng": 16.4485299
        }
      }
    },
    {
      "index": 161,
      "company_name": "Långvinds bruk",
      "location": "Långvind",
      "power_station_name": "Långvind kraftstation",
      "power_source": "water",
      "installed_capacity_kva": 12000,
      "full_location": "Långvind, Gävleborg county, Sweden",
      "geocoding": {
        "formatted_address": "Långvind, 825 96 Enånger, Sweden",
        "location": {
          "lat": 61.45907479999999,
          "lng": 17.1187999
        }
      }
    },
    {
      "index": 164,
      "company_name": "A-B. Iggesunds bruk",
      "location": "Njutånger",
      "power_station_name": "Järnverksfallets kraftstation",
      "power_source": "water",
      "installed_capacity_kva": 9000,
      "full_location": "Njutånger, Gävleborg county, Sweden",
      "geocoding": {
        "formatted_address": "825 92 Njutånger, Sweden",
        "location": {
          "lat": 61.6145874,
          "lng": 17.0497133
        }
      }
    },
    {
      "index": 165,
      "company_name": "Klubbs kvarn och kraftstationsfören.",
      "location": "Njutånger",
      "power_station_name": "Långvinds angstation",
      "power_source": "water",
      "installed_capacity_kva": 3000,
      "full_location": "Njutånger, Gävleborg county, Sweden",
      "geocoding": {
        "formatted_address": "825 92 Njutånger, Sweden",
        "location": {
          "lat": 61.6145874,
          "lng": 17.0497133
        }
      }
    },
    {
      "index": 169,
      "company_name": "Lunds kvarn A-B",
      "location": "Forsa",
      "power_station_name": "Lunds kraftstation",
      "power_source": "water",
      "installed_capacity_kva": 129,
      "full_location": "Forsa, Gävleborg county, Sweden",
      "geocoding": {
        "formatted_address": "824 62 Forsa, Sweden",
        "location": {
          "lat": 61.73374639999999,
          "lng": 16.9406352
        }
      }
    },
    {
      "index": 171,
      "company_name": "Forssa bruks nya A-B.",
      "location": "Nianfors",
      "power_station_name": "Hame kraftstation",
      "power_source": "water",
      "installed_capacity_kva": 3000,
      "full_location": "Nianfors, Gävleborg county, Sweden",
      "geocoding": {
        "formatted_address": "825 93 Nianfors, Sweden",
        "location": {
          "lat": 61.6013184,
          "lng": 16.7661572
        }
      }
    },
    {
      "index": 172,
      "company_name": "Mindre kraftanläggningar",
      "location": "Nianfors",
      "power_station_name": "Nianfors kraftstation",
      "power_source": "water",
      "installed_capacity_kva": 4000,
      "full_location": "Nianfors, Gävleborg county, Sweden",
      "geocoding": {
        "formatted_address": "825 93 Nianfors, Sweden",
        "location": {
          "lat": 61.6013184,
          "lng": 16.7661572
        }
      }
    },
    {
      "index": 174,
      "company_name": "A-B. Arb.VK. Kraftverk.",
      "location": "Idenor",
      "power_station_name": "Abon. fr. ArbVK. Kraftverk",
      "power_source": "subscription",
      "installed_capacity_kva": 4000,
      "full_location": "Idenor, Gävleborg county, Sweden",
      "geocoding": {
        "formatted_address": "824 40 Idenor, Sweden",
        "location": {
          "lat": 61.70117560000001,
          "lng": 17.1027191
        }
      }
    },
    {
      "index": 176,
      "company_name": "A-B. Iggesunds bruk",
      "location": "Hudiksvall",
      "power_station_name": "Hudiksvalls ångsåg",
      "power_source": "oil",
      "installed_capacity_kva": 85,
      "full_location": "Hudiksvall, Gävleborg county, Sweden",
      "geocoding": {
        "formatted_address": "Hudiksvall, Sweden",
        "location": {
          "lat": 61.7273909,
          "lng": 17.107401
        }
      }
    },
    {
      "index": 179,
      "company_name": "Ströms bruk A-B.",
      "location": "Harmånger",
      "power_station_name": "Ströms bruks ångstation",
      "power_source": "steam",
      "installed_capacity_kva": 800,
      "full_location": "Harmånger, Gävleborg county, Sweden",
      "geocoding": {
        "formatted_address": "829 95 Harmanger, Sweden",
        "location": {
          "lat": 61.9297564,
          "lng": 17.2173638
        }
      }
    },
    {
      "index": 180,
      "company_name": "Harmångers kvarn- och kraft A-B.",
      "location": "Harmånger",
      "power_station_name": "Forsa kvarn",
      "power_source": "water",
      "installed_capacity_kva": 5000,
      "full_location": "Harmånger, Gävleborg county, Sweden",
      "geocoding": {
        "formatted_address": "829 95 Harmanger, Sweden",
        "location": {
          "lat": 61.9297564,
          "lng": 17.2173638
        }
      }
    }
  ],
  "filename": "Gävleborg_5.png"
}