{
  "data": [
    {
      "index": 1,
      "company_name": "A.-B. Röttle elektricitetsverk",
      "location": "Gränna",
      "power_station_name": "subscription from Södra Vätterns kraft A.-B.",
      "power_source": "subscription",
      "installed_capacity_kva": 8200,
      "full_location": "Gränna, Jönköping county, Sweden",
      "geocoding": {
        "formatted_address": "563 32 Gränna, Sweden",
        "location": {
          "lat": 58.02502339999999,
          "lng": 14.4700948
        }
      }
    },
    {
      "index": 2,
      "company_name": "Södra Vätterns kraft A.-B.",
      "location": "Jönköping",
      "power_station_name": null,
      "power_source": "water",
      "installed_capacity_kva": 8200,
      "full_location": "Jönköping, Jönköping county, Sweden",
      "geocoding": {
        "formatted_address": "Jönköping, Sweden",
        "location": {
          "lat": 57.78261370000001,
          "lng": 14.1617876
        }
      }
    },
    {
      "index": 3,
      "company_name": "Södra Vätterns kraft A.-B.",
      "location": "Jönköping",
      "power_station_name": "subscription from Södra Vätterns kraft A.-B.",
      "power_source": "subscription",
      "installed_capacity_kva": 8200,
      "full_location": "Jönköping, Jönköping county, Sweden",
      "geocoding": {
        "formatted_address": "Jönköping, Sweden",
        "location": {
          "lat": 57.78261370000001,
          "lng": 14.1617876
        }
      }
    },
    {
      "index": 4,
      "company_name": "Bunnströms elektriska förening",
      "location": "Gränna",
      "power_station_name": "subscription from Södra Vätterns kraft A.-B.",
      "power_source": "subscription",
      "installed_capacity_kva": 8200,
      "full_location": "Gränna, Jönköping county, Sweden",
      "geocoding": {
        "formatted_address": "563 32 Gränna, Sweden",
        "location": {
          "lat": 58.02502339999999,
          "lng": 14.4700948
        }
      }
    },
    {
      "index": 5,
      "company_name": "Aneås elektriska förening",
      "location": "Gränna",
      "power_station_name": "subscription from Södra Vätterns kraft A.-B.",
      "power_source": "subscription",
      "installed_capacity_kva": null,
      "full_location": "Gränna, Jönköping county, Sweden",
      "geocoding": {
        "formatted_address": "563 32 Gränna, Sweden",
        "location": {
          "lat": 58.02502339999999,
          "lng": 14.4700948
        }
      }
    },
    {
      "index": 6,
      "company_name": "Ölmestads norra energiförening",
      "location": "Brötjemark",
      "power_station_name": "subscription from Södra Vätterns kraft A.-B.",
      "power_source": "subscription",
      "installed_capacity_kva": null,
      "full_location": "Brötjemark, Jönköping county, Sweden",
      "geocoding": {
        "formatted_address": "563 93 Brötjemark, Sweden",
        "location": {
          "lat": 57.9301116,
          "lng": 14.4121477
        }
      }
    },
    {
      "index": 7,
      "company_name": "Ölmestads kraft A.-B.",
      "location": "Brötjemark",
      "power_station_name": "subscription from Södra Vätterns kraft A.-B.",
      "power_source": "subscription",
      "installed_capacity_kva": null,
      "full_location": "Brötjemark, Jönköping county, Sweden",
      "geocoding": {
        "formatted_address": "563 93 Brötjemark, Sweden",
        "location": {
          "lat": 57.9301116,
          "lng": 14.4121477
        }
      }
    },
    {
      "index": 8,
      "company_name": "Jönköpings stads elektricitetsverk",
      "location": "Jönköping",
      "power_station_name": null,
      "power_source": "water",
      "installed_capacity_kva": 1800,
      "full_location": "Jönköping, Jönköping county, Sweden",
      "geocoding": {
        "formatted_address": "Jönköping, Sweden",
        "location": {
          "lat": 57.78261370000001,
          "lng": 14.1617876
        }
      }
    },
    {
      "index": 9,
      "company_name": "Jönköpings stads elektricitetsverk",
      "location": "Jönköping",
      "power_station_name": "subscription from Jönköpings el-verk",
      "power_source": "subscription",
      "installed_capacity_kva": 2700,
      "full_location": "Jönköping, Jönköping county, Sweden",
      "geocoding": {
        "formatted_address": "Jönköping, Sweden",
        "location": {
          "lat": 57.78261370000001,
          "lng": 14.1617876
        }
      }
    },
    {
      "index": 10,
      "company_name": "Lyckås A.-B.",
      "location": "Lyckås Gård",
      "power_station_name": "subscription from Jönköpings el-verk",
      "power_source": "subscription",
      "installed_capacity_kva": 2700,
      "full_location": "Lyckås Gård, Jönköping county, Sweden",
      "geocoding": {
        "formatted_address": "Jonkoping County, Sweden",
        "location": {
          "lat": 57.3708434,
          "lng": 14.3439173
        }
      }
    },
    {
      "index": 11,
      "company_name": "Tranås stads elektricitetsverk",
      "location": "Tranås",
      "power_station_name": null,
      "power_source": "water",
      "installed_capacity_kva": 3240,
      "full_location": "Tranås, Jönköping county, Sweden",
      "geocoding": {
        "formatted_address": "Tranås, Sweden",
        "location": {
          "lat": 58.035518,
          "lng": 14.975696
        }
      }
    },
    {
      "index": 12,
      "company_name": "A.-B. Asvallahults elektricitetsverk",
      "location": "Tranås",
      "power_station_name": null,
      "power_source": "water",
      "installed_capacity_kva": 3600,
      "full_location": "Tranås, Jönköping county, Sweden",
      "geocoding": {
        "formatted_address": "Tranås, Sweden",
        "location": {
          "lat": 58.035518,
          "lng": 14.975696
        }
      }
    },
    {
      "index": 13,
      "company_name": "A.-B. Asvallahults elektricitetsverk",
      "location": "Tranås",
      "power_station_name": null,
      "power_source": "steam",
      "installed_capacity_kva": 840,
      "full_location": "Tranås, Jönköping county, Sweden",
      "geocoding": {
        "formatted_address": "Tranås, Sweden",
        "location": {
          "lat": 58.035518,
          "lng": 14.975696
        }
      }
    }
  ],
  "filename": "Jönköping_1.png"
}