{
  "data": [
    {
      "index": 21,
      "company_name": "Söderby-Karls el. distr.-fören.",
      "location": "Söderby-Karl",
      "power_station_name": "subscription from Älvkarleby kraftverk",
      "power_source": "subscription",
      "installed_capacity_kva": null,
      "full_location": "Söderby-Karl, Stockholm county, Sweden",
      "geocoding": {
        "formatted_address": "761 74 Söderby-Karl, Sweden",
        "location": {
          "lat": 59.8863685,
          "lng": 18.7008249
        }
      }
    },
    {
      "index": 22,
      "company_name": "Roslagsbro el. distr.-fören.",
      "location": "Roslagsbro",
      "power_station_name": "subscription from Älvkarleby kraftverk",
      "power_source": "subscription",
      "installed_capacity_kva": null,
      "full_location": "Roslagsbro, Stockholm county, Sweden",
      "geocoding": {
        "formatted_address": "Stockholm County, Sweden",
        "location": {
          "lat": 59.4069048,
          "lng": 18.8230665
        }
      }
    },
    {
      "index": 23,
      "company_name": "Vätö el. distr.-fören.",
      "location": "Vätö",
      "power_station_name": "subscription from Älvkarleby kraftverk",
      "power_source": "subscription",
      "installed_capacity_kva": null,
      "full_location": "Vätö, Stockholm county, Sweden",
      "geocoding": {
        "formatted_address": "760 21 Vätö, Sweden",
        "location": {
          "lat": 59.816667,
          "lng": 18.916667
        }
      }
    },
    {
      "index": 24,
      "company_name": "Estuna el. distr.-fören.",
      "location": "Estuna och Söderby-Karl",
      "power_station_name": "subscription from Älvkarleby kraftverk",
      "power_source": "subscription",
      "installed_capacity_kva": null,
      "full_location": "Estuna och Söderby-Karl, Stockholm county, Sweden",
      "geocoding": {
        "formatted_address": "761 73 Estuna, Sweden",
        "location": {
          "lat": 59.818662,
          "lng": 18.6512733
        }
      }
    },
    {
      "index": 25,
      "company_name": "Norrtälje stads el.-verk",
      "location": "Norrtälje",
      "power_station_name": null,
      "power_source": "water",
      "installed_capacity_kva": 50,
      "full_location": "Norrtälje, Stockholm county, Sweden",
      "geocoding": {
        "formatted_address": "Norrtälje, Sweden",
        "location": {
          "lat": 59.7595841,
          "lng": 18.7013584
        }
      }
    },
    {
      "index": 26,
      "company_name": "Frötuna el. distr.-fören.",
      "location": "Frötuna",
      "power_station_name": "subscription from Älvkarleby kraftverk",
      "power_source": "subscription",
      "installed_capacity_kva": null,
      "full_location": "Frötuna, Stockholm county, Sweden",
      "geocoding": {
        "formatted_address": "Stockholm County, Sweden",
        "location": {
          "lat": 59.4069048,
          "lng": 18.8230665
        }
      }
    },
    {
      "index": 27,
      "company_name": "Lohärads el. distr.-fören.",
      "location": "Lohärad",
      "power_station_name": "subscription from Älvkarleby kraftverk",
      "power_source": "subscription",
      "installed_capacity_kva": null,
      "full_location": "Lohärad, Stockholm county, Sweden",
      "geocoding": {
        "formatted_address": "Södra Lohärad, 761 71 Norrtälje, Sweden",
        "location": {
          "lat": 59.775658,
          "lng": 18.602585
        }
      }
    },
    {
      "index": 28,
      "company_name": "Ununge el. distr.-fören.",
      "location": "Ununge",
      "power_station_name": "subscription from Älvkarleby kraftverk",
      "power_source": "subscription",
      "installed_capacity_kva": null,
      "full_location": "Ununge, Stockholm county, Sweden",
      "geocoding": {
        "formatted_address": "762 98 Ununge, Sweden",
        "location": {
          "lat": 59.9285987,
          "lng": 18.5891402
        }
      }
    },
    {
      "index": 29,
      "company_name": "Rimbo el. distr.-fören.",
      "location": "Rimbo",
      "power_station_name": "subscription from Älvkarleby kraftverk",
      "power_source": "subscription",
      "installed_capacity_kva": null,
      "full_location": "Rimbo, Stockholm county, Sweden",
      "geocoding": {
        "formatted_address": "Rimbo, Sweden",
        "location": {
          "lat": 59.7436995,
          "lng": 18.3601496
        }
      }
    },
    {
      "index": 30,
      "company_name": "Rimbo municipalsamhälle och Rimbo kommuns el.-verk",
      "location": "Rimbo",
      "power_station_name": "subscription from Älvkarleby kraftverk",
      "power_source": "subscription",
      "installed_capacity_kva": null,
      "full_location": "Rimbo, Stockholm county, Sweden",
      "geocoding": {
        "formatted_address": "Rimbo, Sweden",
        "location": {
          "lat": 59.7436995,
          "lng": 18.3601496
        }
      }
    },
    {
      "index": 31,
      "company_name": "Gimo-Österby Bruks A.-B.",
      "location": "Fasterna",
      "power_station_name": "Rånäs",
      "power_source": "water",
      "installed_capacity_kva": 60,
      "full_location": "Fasterna, Stockholm county, Sweden",
      "geocoding": {
        "formatted_address": "Fasterna kyrkväg 12, 762 96 Rånäs, Sweden",
        "location": {
          "lat": 59.76967579999999,
          "lng": 18.2408417
        }
      }
    },
    {
      "index": 32,
      "company_name": "Lenna Bruks A.-B.",
      "location": "Almunge",
      "power_station_name": "subscription from Älvkarleby kraftverk",
      "power_source": "subscription",
      "installed_capacity_kva": 50,
      "full_location": "Almunge, Stockholm county, Sweden",
      "geocoding": {
        "formatted_address": "Stockholm County, Sweden",
        "location": {
          "lat": 59.4069048,
          "lng": 18.8230665
        }
      }
    },
    {
      "index": 33,
      "company_name": "Almunge el. distr.-fören.",
      "location": "Almunge",
      "power_station_name": "subscription from Älvkarleby kraftverk",
      "power_source": "subscription",
      "installed_capacity_kva": null,
      "full_location": "Almunge, Stockholm county, Sweden",
      "geocoding": {
        "formatted_address": "Stockholm County, Sweden",
        "location": {
          "lat": 59.4069048,
          "lng": 18.8230665
        }
      }
    },
    {
      "index": 34,
      "company_name": "Husby-Långhundra el. distr.-fören.",
      "location": "Husby-Långhundra",
      "power_station_name": "subscription from Älvkarleby kraftverk",
      "power_source": "subscription",
      "installed_capacity_kva": null,
      "full_location": "Husby-Långhundra, Stockholm county, Sweden",
      "geocoding": {
        "formatted_address": "Husby, Stockholm, Sweden",
        "location": {
          "lat": 59.40969579999999,
          "lng": 17.9284919
        }
      }
    },
    {
      "index": 35,
      "company_name": "Gottröra el. distr.-fören.",
      "location": "Gottröra",
      "power_station_name": "subscription from Älvkarleby kraftverk",
      "power_source": "subscription",
      "installed_capacity_kva": null,
      "full_location": "Gottröra, Stockholm county, Sweden",
      "geocoding": {
        "formatted_address": "762 95 Gottröra, Sweden",
        "location": {
          "lat": 59.739118,
          "lng": 18.1609381
        }
      }
    },
    {
      "index": 36,
      "company_name": "Knivsta el. distr.-fören.",
      "location": "Knivsta",
      "power_station_name": "subscription from Älvkarleby kraftverk",
      "power_source": "subscription",
      "installed_capacity_kva": 50,
      "full_location": "Knivsta, Stockholm county, Sweden",
      "geocoding": {
        "formatted_address": "Knivsta, Sweden",
        "location": {
          "lat": 59.75847599999999,
          "lng": 17.879962
        }
      }
    },
    {
      "index": 37,
      "company_name": "Alsike el. distr.-fören.",
      "location": "Alsike",
      "power_station_name": "subscription from Älvkarleby kraftverk",
      "power_source": "subscription",
      "installed_capacity_kva": 50,
      "full_location": "Alsike, Stockholm county, Sweden",
      "geocoding": {
        "formatted_address": "Stockholm County, Sweden",
        "location": {
          "lat": 59.4069048,
          "lng": 18.8230665
        }
      }
    },
    {
      "index": 38,
      "company_name": "Vallox-Seby el. distr.-fören.",
      "location": "Odensala",
      "power_station_name": "subscription from Älvkarleby kraftverk",
      "power_source": "subscription",
      "installed_capacity_kva": 50,
      "full_location": "Odensala, Stockholm county, Sweden",
      "geocoding": {
        "formatted_address": "195 92 Odensala, Sweden",
        "location": {
          "lat": 59.6651476,
          "lng": 17.8483742
        }
      }
    },
    {
      "index": 39,
      "company_name": "Noor-Ledsinge el. distr.-fören.",
      "location": "Knivsta",
      "power_station_name": "subscription from Älvkarleby kraftverk",
      "power_source": "subscription",
      "installed_capacity_kva": 50,
      "full_location": "Knivsta, Stockholm county, Sweden",
      "geocoding": {
        "formatted_address": "Knivsta, Sweden",
        "location": {
          "lat": 59.75847599999999,
          "lng": 17.879962
        }
      }
    },
    {
      "index": 40,
      "company_name": "Odensala el. distr.-fören.",
      "location": "Odensala",
      "power_station_name": "subscription from Älvkarleby kraftverk",
      "power_source": "subscription",
      "installed_capacity_kva": 50,
      "full_location": "Odensala, Stockholm county, Sweden",
      "geocoding": {
        "formatted_address": "195 92 Odensala, Sweden",
        "location": {
          "lat": 59.6651476,
          "lng": 17.8483742
        }
      }
    },
    {
      "index": 41,
      "company_name": "Märstaorten el. distr.-fören.",
      "location": "Husby-Ärlinghundra",
      "power_station_name": "subscription from Älvkarleby kraftverk",
      "power_source": "subscription",
      "installed_capacity_kva": 90,
      "full_location": "Husby-Ärlinghundra, Stockholm county, Sweden",
      "geocoding": {
        "formatted_address": "Husby Kyrkby 131, 195 91 Märsta, Sweden",
        "location": {
          "lat": 59.6401495,
          "lng": 17.882201
        }
      }
    },
    {
      "index": 42,
      "company_name": "Sigtuna el. distr.-fören.",
      "location": "Sigtuna",
      "power_station_name": "subscription from Älvkarleby kraftverk",
      "power_source": "subscription",
      "installed_capacity_kva": 44,
      "full_location": "Sigtuna, Stockholm county, Sweden",
      "geocoding": {
        "formatted_address": "Sigtuna, Sweden",
        "location": {
          "lat": 59.6191463,
          "lng": 17.7234191
        }
      }
    },
    {
      "index": 43,
      "company_name": "Sigtuna-Husby-Lunda el. distr.-fören.",
      "location": "Sigtuna och St Olof",
      "power_station_name": "subscription from Älvkarleby kraftverk",
      "power_source": "subscription",
      "installed_capacity_kva": 100,
      "full_location": "Sigtuna och St Olof, Stockholm county, Sweden",
      "geocoding": {
        "formatted_address": "Olofsgatan, 193 30 Sigtuna, Sweden",
        "location": {
          "lat": 59.6183521,
          "lng": 17.721196
        }
      }
    },
    {
      "index": 44,
      "company_name": "Vengarn uppfostringsanstalt",
      "location": "St Olof",
      "power_station_name": "subscription from Älvkarleby kraftverk",
      "power_source": "subscription",
      "installed_capacity_kva": 50,
      "full_location": "St Olof, Stockholm county, Sweden",
      "geocoding": {
        "formatted_address": "Stockholm County, Sweden",
        "location": {
          "lat": 59.4069048,
          "lng": 18.8230665
        }
      }
    },
    {
      "index": 45,
      "company_name": "Skånela el. distr.-fören.",
      "location": "Norrsunda",
      "power_station_name": "subscription from Älvkarleby kraftverk",
      "power_source": "subscription",
      "installed_capacity_kva": 90,
      "full_location": "Norrsunda, Stockholm county, Sweden",
      "geocoding": {
        "formatted_address": "130 38 Norrsunda, Sweden",
        "location": {
          "lat": 59.2725483,
          "lng": 18.7402627
        }
      }
    },
    {
      "index": 46,
      "company_name": "Röserbergs el. distr.-fören.",
      "location": "Sollentuna",
      "power_station_name": "subscription from Älvkarleby kraftverk",
      "power_source": "subscription",
      "installed_capacity_kva": 90,
      "full_location": "Sollentuna, Stockholm county, Sweden",
      "geocoding": {
        "formatted_address": "Sollentuna, Sweden",
        "location": {
          "lat": 59.43049730000001,
          "lng": 17.950916
        }
      }
    },
    {
      "index": 47,
      "company_name": "Älvkarleby kraftverk Sekundärstationen i Norrviken",
      "location": "Sollentuna",
      "power_station_name": "subscription from Älvkarleby kraftverk",
      "power_source": "subscription",
      "installed_capacity_kva": 0,
      "full_location": "Sollentuna, Stockholm county, Sweden",
      "geocoding": {
        "formatted_address": "Sollentuna, Sweden",
        "location": {
          "lat": 59.43049730000001,
          "lng": 17.950916
        }
      }
    },
    {
      "index": 48,
      "company_name": "A.-B. Svenska färgämnesutveckling",
      "location": "Sollentuna",
      "power_station_name": "subscription from Älvkarleby kraftverk",
      "power_source": "subscription",
      "installed_capacity_kva": 90,
      "full_location": "Sollentuna, Stockholm county, Sweden",
      "geocoding": {
        "formatted_address": "Sollentuna, Sweden",
        "location": {
          "lat": 59.43049730000001,
          "lng": 17.950916
        }
      }
    }
  ],
  "filename": "Stockholm_2.png"
}