{
  "data": [
    {
      "index": 353,
      "company_name": "Sångbergetsföreningen",
      "location": "Silbodal",
      "power_station_name": "subscription from nr 253",
      "power_source": "subscription",
      "installed_capacity_kva": null,
      "full_location": "Silbodal, Värmland county, Sweden",
      "geocoding": {
        "formatted_address": "Storgatan, 672 31 Årjäng, Sweden",
        "location": {
          "lat": 59.3859301,
          "lng": 12.1241929
        }
      }
    },
    {
      "index": 354,
      "company_name": "Sjögrändernas ljusförening",
      "location": "Do",
      "power_station_name": "subscription from nr 253",
      "power_source": "subscription",
      "installed_capacity_kva": null,
      "full_location": "Do, Värmland county, Sweden",
      "geocoding": {
        "formatted_address": "Varmland County, Sweden",
        "location": {
          "lat": 59.5807897,
          "lng": 12.8472974
        }
      }
    },
    {
      "index": 355,
      "company_name": "Holerudsforenas A.-B. (Mörudds kvarn)",
      "location": "Do",
      "power_station_name": "Moleruds kraftstation",
      "power_source": "water",
      "installed_capacity_kva": 75,
      "full_location": "Do, Värmland county, Sweden",
      "geocoding": {
        "formatted_address": "Varmland County, Sweden",
        "location": {
          "lat": 59.5807897,
          "lng": 12.8472974
        }
      }
    },
    {
      "index": 356,
      "company_name": "Åslanda elektriska förening",
      "location": "Åslanda",
      "power_station_name": null,
      "power_source": "subscription",
      "installed_capacity_kva": null,
      "full_location": "Åslanda, Värmland county, Sweden",
      "geocoding": {
        "formatted_address": "672 91 Åslanda, Sweden",
        "location": {
          "lat": 59.4168934,
          "lng": 12.1365564
        }
      }
    },
    {
      "index": 356,
      "company_name": "Lennartsfors A.-B.",
      "location": "Trankil",
      "power_station_name": "Lennartsfors bruk",
      "power_source": "water",
      "installed_capacity_kva": 207,
      "full_location": "Trankil, Värmland county, Sweden",
      "geocoding": {
        "formatted_address": "Trankil, 672 92 Årjäng, Sweden",
        "location": {
          "lat": 59.262182,
          "lng": 11.892922
        }
      }
    },
    {
      "index": 357,
      "company_name": "Blomma elektriska förening",
      "location": "Blomskog",
      "power_station_name": "Blomma kraftstation",
      "power_source": "water",
      "installed_capacity_kva": 275,
      "full_location": "Blomskog, Värmland county, Sweden",
      "geocoding": {
        "formatted_address": "Blomskog socken, 672 92 Årjäng, Sweden",
        "location": {
          "lat": 59.257934,
          "lng": 12.0419
        }
      }
    },
    {
      "index": 358,
      "company_name": "Sandbygdens kraft A.-B.",
      "location": "Sillerud",
      "power_station_name": "Sandbygdens kraftstation",
      "power_source": "water",
      "installed_capacity_kva": 350,
      "full_location": "Sillerud, Värmland county, Sweden",
      "geocoding": {
        "formatted_address": "672 95 Sillerud, Sweden",
        "location": {
          "lat": 59.30634019999999,
          "lng": 12.307761
        }
      }
    },
    {
      "index": 359,
      "company_name": "Åsebyfors elektriska verk",
      "location": "Åsebyfors",
      "power_station_name": "Åsebyfors",
      "power_source": "water",
      "installed_capacity_kva": 600,
      "full_location": "Åsebyfors, Värmland county, Sweden",
      "geocoding": {
        "formatted_address": "Varmland County, Sweden",
        "location": {
          "lat": 59.5807897,
          "lng": 12.8472974
        }
      }
    },
    {
      "index": 360,
      "company_name": "Sandna elektriska förening",
      "location": "Sandna",
      "power_station_name": null,
      "power_source": "subscription",
      "installed_capacity_kva": null,
      "full_location": "Sandna, Värmland county, Sweden",
      "geocoding": {
        "formatted_address": "Varmland County, Sweden",
        "location": {
          "lat": 59.5807897,
          "lng": 12.8472974
        }
      }
    },
    {
      "index": 361,
      "company_name": "A.-B. Grinsafallets kraftstation",
      "location": "Grinsafors",
      "power_station_name": "Grinsafors såg",
      "power_source": "water",
      "installed_capacity_kva": 10,
      "full_location": "Grinsafors, Värmland county, Sweden",
      "geocoding": {
        "formatted_address": "Varmland County, Sweden",
        "location": {
          "lat": 59.5807897,
          "lng": 12.8472974
        }
      }
    },
    {
      "index": 362,
      "company_name": "D. Nordin",
      "location": "Svanskog",
      "power_station_name": "Donsbols såg",
      "power_source": "water",
      "installed_capacity_kva": 14,
      "full_location": "Svanskog, Värmland county, Sweden",
      "geocoding": {
        "formatted_address": "662 50 Svanskog, Sweden",
        "location": {
          "lat": 59.17884919999999,
          "lng": 12.5516014
        }
      }
    },
    {
      "index": 363,
      "company_name": "Esbjörbyns elektriska förening",
      "location": "Långserud",
      "power_station_name": "Esbjörbyns",
      "power_source": "water",
      "installed_capacity_kva": 14,
      "full_location": "Långserud, Värmland county, Sweden",
      "geocoding": {
        "formatted_address": "661 95 Kyrkebol, Sweden",
        "location": {
          "lat": 59.278853,
          "lng": 12.7743639
        }
      }
    },
    {
      "index": 364,
      "company_name": "Svaneholms A.-B.",
      "location": "Svaneholm",
      "power_station_name": null,
      "power_source": "subscription",
      "installed_capacity_kva": null,
      "full_location": "Svaneholm, Värmland county, Sweden",
      "geocoding": {
        "formatted_address": "662 50 Svanskog, Sweden",
        "location": {
          "lat": 59.17884919999999,
          "lng": 12.5516014
        }
      }
    },
    {
      "index": 365,
      "company_name": "Viskfors A.-B.",
      "location": "Viskfors",
      "power_station_name": null,
      "power_source": "subscription",
      "installed_capacity_kva": null,
      "full_location": "Viskfors, Värmland county, Sweden",
      "geocoding": {
        "formatted_address": "Varmland County, Sweden",
        "location": {
          "lat": 59.5807897,
          "lng": 12.8472974
        }
      }
    },
    {
      "index": 366,
      "company_name": "Eldaren Pettersson",
      "location": "Kyrefors",
      "power_station_name": null,
      "power_source": "subscription",
      "installed_capacity_kva": null,
      "full_location": "Kyrefors, Värmland county, Sweden",
      "geocoding": {
        "formatted_address": "Varmland County, Sweden",
        "location": {
          "lat": 59.5807897,
          "lng": 12.8472974
        }
      }
    },
    {
      "index": 367,
      "company_name": "Kolstares Kraft A.-B.",
      "location": "Gillberga",
      "power_station_name": null,
      "power_source": "subscription",
      "installed_capacity_kva": null,
      "full_location": "Gillberga, Värmland county, Sweden",
      "geocoding": {
        "formatted_address": "Gillberga, 661 95 Värmlands Nysäter, Sweden",
        "location": {
          "lat": 59.344872,
          "lng": 12.779298
        }
      }
    },
    {
      "index": 368,
      "company_name": "Stenbyka elektriska andelsförening",
      "location": "Skillingfors",
      "power_station_name": null,
      "power_source": "subscription",
      "installed_capacity_kva": null,
      "full_location": "Skillingfors, Värmland county, Sweden",
      "geocoding": {
        "formatted_address": "673 99 Skillingsfors, Sweden",
        "location": {
          "lat": 59.816667,
          "lng": 12
        }
      }
    },
    {
      "index": 368,
      "company_name": "Do",
      "location": "Torsby",
      "power_station_name": null,
      "power_source": "subscription",
      "installed_capacity_kva": null,
      "full_location": "Torsby, Värmland county, Sweden",
      "geocoding": {
        "formatted_address": "Torsby, Sweden",
        "location": {
          "lat": 60.14090719999999,
          "lng": 13.0102132
        }
      }
    },
    {
      "index": 368,
      "company_name": "Do",
      "location": "Do",
      "power_station_name": null,
      "power_source": "subscription",
      "installed_capacity_kva": null,
      "full_location": "Do, Värmland county, Sweden",
      "geocoding": {
        "formatted_address": "Varmland County, Sweden",
        "location": {
          "lat": 59.5807897,
          "lng": 12.8472974
        }
      }
    },
    {
      "index": 369,
      "company_name": "Do",
      "location": "Skillingfors",
      "power_station_name": "Skillingfors",
      "power_source": "water",
      "installed_capacity_kva": 50,
      "full_location": "Skillingfors, Värmland county, Sweden",
      "geocoding": {
        "formatted_address": "673 99 Skillingsfors, Sweden",
        "location": {
          "lat": 59.816667,
          "lng": 12
        }
      }
    },
    {
      "index": 369,
      "company_name": "Do",
      "location": "Bispgården",
      "power_station_name": "Bispgården",
      "power_source": "water",
      "installed_capacity_kva": 60,
      "full_location": "Bispgården, Värmland county, Sweden",
      "geocoding": {
        "formatted_address": "Biskopsgården, Karlstad, Västra Torggatan 23, 652 24 Karlstad, Sweden",
        "location": {
          "lat": 59.38278609999999,
          "lng": 13.501469
        }
      }
    },
    {
      "index": 369,
      "company_name": "Do",
      "location": "Matfors",
      "power_station_name": "Matfors",
      "power_source": "water",
      "installed_capacity_kva": 75,
      "full_location": "Matfors, Värmland county, Sweden",
      "geocoding": {
        "formatted_address": "Varmland County, Sweden",
        "location": {
          "lat": 59.5807897,
          "lng": 12.8472974
        }
      }
    },
    {
      "index": 369,
      "company_name": "Do",
      "location": "Viksfors",
      "power_station_name": "Byn",
      "power_source": "water",
      "installed_capacity_kva": 35,
      "full_location": "Viksfors, Värmland county, Sweden",
      "geocoding": {
        "formatted_address": "Wiksfors Bruk, Wiksfors, 661 96 Långserud, Sweden",
        "location": {
          "lat": 59.2643839,
          "lng": 12.6304667
        }
      }
    },
    {
      "index": 369,
      "company_name": "Do",
      "location": "Molnbygden",
      "power_station_name": "Nykroppa",
      "power_source": "water",
      "installed_capacity_kva": 28,
      "full_location": "Molnbygden, Värmland county, Sweden",
      "geocoding": {
        "formatted_address": "Varmland County, Sweden",
        "location": {
          "lat": 59.5807897,
          "lng": 12.8472974
        }
      }
    },
    {
      "index": 370,
      "company_name": "Viskfors A.-B.",
      "location": "Viskfors",
      "power_station_name": null,
      "power_source": "subscription",
      "installed_capacity_kva": null,
      "full_location": "Viskfors, Värmland county, Sweden",
      "geocoding": {
        "formatted_address": "Varmland County, Sweden",
        "location": {
          "lat": 59.5807897,
          "lng": 12.8472974
        }
      }
    },
    {
      "index": 370,
      "company_name": "Do",
      "location": "Yttra",
      "power_station_name": "ÅBs kraftstation",
      "power_source": "water",
      "installed_capacity_kva": 120,
      "full_location": "Yttra, Värmland county, Sweden",
      "geocoding": {
        "formatted_address": "Varmland County, Sweden",
        "location": {
          "lat": 59.5807897,
          "lng": 12.8472974
        }
      }
    },
    {
      "index": 371,
      "company_name": "Do",
      "location": "Do",
      "power_station_name": "Kulta",
      "power_source": "water",
      "installed_capacity_kva": 50,
      "full_location": "Do, Värmland county, Sweden",
      "geocoding": {
        "formatted_address": "Varmland County, Sweden",
        "location": {
          "lat": 59.5807897,
          "lng": 12.8472974
        }
      }
    },
    {
      "index": 371,
      "company_name": "Do",
      "location": "Gillberga",
      "power_station_name": "Blixbo kraftstation",
      "power_source": "water",
      "installed_capacity_kva": 100,
      "full_location": "Gillberga, Värmland county, Sweden",
      "geocoding": {
        "formatted_address": "Gillberga, 661 95 Värmlands Nysäter, Sweden",
        "location": {
          "lat": 59.344872,
          "lng": 12.779298
        }
      }
    },
    {
      "index": 371,
      "company_name": "Do",
      "location": "Gillberga",
      "power_station_name": "Tollbullete kraftstation",
      "power_source": "water",
      "installed_capacity_kva": 1000,
      "full_location": "Gillberga, Värmland county, Sweden",
      "geocoding": {
        "formatted_address": "Gillberga, 661 95 Värmlands Nysäter, Sweden",
        "location": {
          "lat": 59.344872,
          "lng": 12.779298
        }
      }
    },
    {
      "index": 371,
      "company_name": "Do",
      "location": "Svalöv",
      "power_station_name": "Hellik",
      "power_source": "water",
      "installed_capacity_kva": 500,
      "full_location": "Svalöv, Värmland county, Sweden",
      "geocoding": {
        "formatted_address": "Varmland County, Sweden",
        "location": {
          "lat": 59.5807897,
          "lng": 12.8472974
        }
      }
    },
    {
      "index": 371,
      "company_name": "Do",
      "location": "Do",
      "power_station_name": "Granheda kraftstation",
      "power_source": "water",
      "installed_capacity_kva": 450,
      "full_location": "Do, Värmland county, Sweden",
      "geocoding": {
        "formatted_address": "Varmland County, Sweden",
        "location": {
          "lat": 59.5807897,
          "lng": 12.8472974
        }
      }
    },
    {
      "index": 371,
      "company_name": "Do",
      "location": "Do",
      "power_station_name": "Hartjärn kraftstation",
      "power_source": "water",
      "installed_capacity_kva": 500,
      "full_location": "Do, Värmland county, Sweden",
      "geocoding": {
        "formatted_address": "Varmland County, Sweden",
        "location": {
          "lat": 59.5807897,
          "lng": 12.8472974
        }
      }
    },
    {
      "index": 371,
      "company_name": "Do",
      "location": "Do",
      "power_station_name": "Do",
      "power_source": "water",
      "installed_capacity_kva": 750,
      "full_location": "Do, Värmland county, Sweden",
      "geocoding": {
        "formatted_address": "Varmland County, Sweden",
        "location": {
          "lat": 59.5807897,
          "lng": 12.8472974
        }
      }
    }
  ],
  "filename": "Värmland_9.png"
}