{
  "data": [
    {
      "index": 59,
      "company_name": "Lerums El. A.-B.",
      "location": "Lerum, Skallsjö, St. Lundby, Bergum, Skållerud, Hemsjö",
      "power_station_name": "subscription from Trollhätte kraftverk",
      "power_source": "subscription",
      "installed_capacity_kva": 10000,
      "full_location": "Lerum, Skallsjö, St. Lundby, Bergum, Skållerud, Hemsjö, Älvsborg county, Sweden",
      "geocoding": {
        "formatted_address": "Lerum, Sweden",
        "location": {
          "lat": 57.7694839,
          "lng": 12.2688197
        }
      }
    },
    {
      "index": 60,
      "company_name": "Nääs Fabr. A.-B.",
      "location": "Nässjö eller Tollered",
      "power_station_name": null,
      "power_source": "steam",
      "installed_capacity_kva": 1100,
      "full_location": "Nässjö eller Tollered, Älvsborg county, Sweden",
      "geocoding": {
        "formatted_address": "448 50 Tollered, Sweden",
        "location": {
          "lat": 57.8192649,
          "lng": 12.4188879
        }
      }
    },
    {
      "index": 61,
      "company_name": "Adelstens- Adelsköldska fideikommissför. Alingsås Snickerifabr. A.-B.",
      "location": "Solvieden, Skallsjö, Remjäng, Alingsås",
      "power_station_name": null,
      "power_source": "water",
      "installed_capacity_kva": 160,
      "full_location": "Solvieden, Skallsjö, Remjäng, Alingsås, Älvsborg county, Sweden",
      "geocoding": {
        "formatted_address": "Alingsås, Sweden",
        "location": {
          "lat": 57.9300205,
          "lng": 12.5362113
        }
      }
    },
    {
      "index": 62,
      "company_name": "Trollhätte kraftverk sek.",
      "location": "Alingsås stad",
      "power_station_name": null,
      "power_source": "steam",
      "installed_capacity_kva": 110,
      "full_location": "Alingsås stad, Älvsborg county, Sweden",
      "geocoding": {
        "formatted_address": "Alingsås, Sweden",
        "location": {
          "lat": 57.9300205,
          "lng": 12.5362113
        }
      }
    },
    {
      "index": 63,
      "company_name": "Distribut. vid Alingsås",
      "location": "Alingsås",
      "power_station_name": "subscription from Alingsås stads el-verk",
      "power_source": "subscription",
      "installed_capacity_kva": 8000,
      "full_location": "Alingsås, Älvsborg county, Sweden",
      "geocoding": {
        "formatted_address": "Alingsås, Sweden",
        "location": {
          "lat": 57.9300205,
          "lng": 12.5362113
        }
      }
    },
    {
      "index": 64,
      "company_name": "Bolltorps sanatorium",
      "location": "Trollhätte",
      "power_station_name": "subscription from Trollhätte kraftverk",
      "power_source": "subscription",
      "installed_capacity_kva": 10000,
      "full_location": "Trollhätte, Älvsborg county, Sweden",
      "geocoding": {
        "formatted_address": "Trollhättan, Sweden",
        "location": {
          "lat": 58.28348939999999,
          "lng": 12.2858206
        }
      }
    },
    {
      "index": 66,
      "company_name": "Björkeåsens el. distr.-fören.",
      "location": "Björke, Fässberg",
      "power_station_name": "subscription from Trollhätte kraftverk",
      "power_source": "subscription",
      "installed_capacity_kva": 10000,
      "full_location": "Björke, Fässberg, Älvsborg county, Sweden",
      "geocoding": {
        "formatted_address": "431 59 Fässberg, Sweden",
        "location": {
          "lat": 57.65,
          "lng": 11.966667
        }
      }
    },
    {
      "index": 67,
      "company_name": "Vikaryds egendom",
      "location": "Vikaryd",
      "power_station_name": "subscription from Trollhätte kraftverk",
      "power_source": "subscription",
      "installed_capacity_kva": 10000,
      "full_location": "Vikaryd, Älvsborg county, Sweden",
      "geocoding": {
        "formatted_address": "Älvsborg, Gothenburg, Sweden",
        "location": {
          "lat": 57.6740043,
          "lng": 11.881866
        }
      }
    },
    {
      "index": 68,
      "company_name": "Anterås el. distr.-fören. och",
      "location": "Gothenburg",
      "power_station_name": "subscription from Trollhätte kraftverk",
      "power_source": "subscription",
      "installed_capacity_kva": 10000,
      "full_location": "Gothenburg, Älvsborg county, Sweden",
      "geocoding": {
        "formatted_address": "Gothenburg, Sweden",
        "location": {
          "lat": 57.70887,
          "lng": 11.97456
        }
      }
    },
    {
      "index": 69,
      "company_name": "Långareds el. distr.-fören. och",
      "location": "Trollhättan, Kungälv",
      "power_station_name": "subscription from Trollhätte kraftverk",
      "power_source": "subscription",
      "installed_capacity_kva": 10000,
      "full_location": "Trollhättan, Kungälv, Älvsborg county, Sweden",
      "geocoding": {
        "formatted_address": "Trollhättan, Sweden",
        "location": {
          "lat": 58.28348939999999,
          "lng": 12.2858206
        }
      }
    },
    {
      "index": 70,
      "company_name": "Östads el. distr.-fören.",
      "location": "Östad, Långared",
      "power_station_name": "subscription from Trollhätte kraftverk",
      "power_source": "subscription",
      "installed_capacity_kva": 10000,
      "full_location": "Östad, Långared, Älvsborg county, Sweden",
      "geocoding": {
        "formatted_address": "441 91 Långared, Sweden",
        "location": {
          "lat": 58.0447095,
          "lng": 12.5190296
        }
      }
    },
    {
      "index": 71,
      "company_name": "Bälinge el. distr.-fören. och",
      "location": "Bälinge, Södra Sandby",
      "power_station_name": "subscription from Trollhätte kraftverk",
      "power_source": "subscription",
      "installed_capacity_kva": 10000,
      "full_location": "Bälinge, Södra Sandby, Älvsborg county, Sweden",
      "geocoding": {
        "formatted_address": "441 93 Bälinge, Sweden",
        "location": {
          "lat": 57.95,
          "lng": 12.6
        }
      }
    },
    {
      "index": 72,
      "company_name": "Böeon el. distr.-fören. Färgest. el. distr.-fö.",
      "location": "Bohuslänstorket, Västerlanda",
      "power_station_name": "Hol",
      "power_source": "diesel",
      "installed_capacity_kva": 1100,
      "full_location": "Bohuslänstorket, Västerlanda, Älvsborg county, Sweden",
      "geocoding": {
        "formatted_address": "463 93 Västerlanda, Sweden",
        "location": {
          "lat": 58.09040710000001,
          "lng": 12.1205747
        }
      }
    },
    {
      "index": 73,
      "company_name": "Olstorp",
      "location": "Östfold",
      "power_station_name": "subscription from Trollhätte kraftverk",
      "power_source": "subscription",
      "installed_capacity_kva": 10000,
      "full_location": "Östfold, Älvsborg county, Sweden",
      "geocoding": {
        "formatted_address": "Älvsborg, Gothenburg, Sweden",
        "location": {
          "lat": 57.6740043,
          "lng": 11.881866
        }
      }
    },
    {
      "index": 74,
      "company_name": "Lena el. distr. fören.",
      "location": "Lena, Berg",
      "power_station_name": "subscription from Trollhätte kraftverk",
      "power_source": "subscription",
      "installed_capacity_kva": 20000,
      "full_location": "Lena, Berg, Älvsborg county, Sweden",
      "geocoding": {
        "formatted_address": "Västra Götaland County, Sweden",
        "location": {
          "lat": 58.15991589999999,
          "lng": 12.1360549
        }
      }
    },
    {
      "index": 75,
      "company_name": "Magna el. distr.-fören. och",
      "location": "Magnus, Flen",
      "power_station_name": "subscription from Trollhätte kraftverk",
      "power_source": "subscription",
      "installed_capacity_kva": 20000,
      "full_location": "Magnus, Flen, Älvsborg county, Sweden",
      "geocoding": {
        "formatted_address": "Flen, Sweden",
        "location": {
          "lat": 59.0579376,
          "lng": 16.5879122
        }
      }
    },
    {
      "index": 76,
      "company_name": "Mellby El. distr.-fören.",
      "location": "St. Mellby",
      "power_station_name": "subscription from Lundby station",
      "power_source": "subscription",
      "installed_capacity_kva": 1000,
      "full_location": "St. Mellby, Älvsborg county, Sweden",
      "geocoding": {
        "formatted_address": "441 73 Stora Mellby, Sweden",
        "location": {
          "lat": 58.142478,
          "lng": 12.5816799
        }
      }
    },
    {
      "index": 77,
      "company_name": "Eskils. el. distr. -fören.",
      "location": "Eskils, Styrstad",
      "power_station_name": "subscription from Ström station",
      "power_source": "subscription",
      "installed_capacity_kva": 1000,
      "full_location": "Eskils, Styrstad, Älvsborg county, Sweden",
      "geocoding": {
        "formatted_address": "605 92 Styrstad, Sweden",
        "location": {
          "lat": 58.5618664,
          "lng": 16.2727592
        }
      }
    },
    {
      "index": 78,
      "company_name": "Sätra sockens el. distr.-fören.",
      "location": "Skövde",
      "power_station_name": "subscription from Ström station",
      "power_source": "subscription",
      "installed_capacity_kva": 1000,
      "full_location": "Skövde, Älvsborg county, Sweden",
      "geocoding": {
        "formatted_address": "Skövde, Sweden",
        "location": {
          "lat": 58.3902782,
          "lng": 13.8461208
        }
      }
    },
    {
      "index": 79,
      "company_name": "Vårgårda Tegelbruk",
      "location": "Vårgårda",
      "power_station_name": "subscription from Alingsås stads el.-verk",
      "power_source": "subscription",
      "installed_capacity_kva": 8000,
      "full_location": "Vårgårda, Älvsborg county, Sweden",
      "geocoding": {
        "formatted_address": "Vårgårda, Sweden",
        "location": {
          "lat": 58.0323039,
          "lng": 12.8089764
        }
      }
    },
    {
      "index": 81,
      "company_name": "Vårgårda Samhälle samt",
      "location": "Vårgårda",
      "power_station_name": "subscription from Västra station",
      "power_source": "subscription",
      "installed_capacity_kva": 10000,
      "full_location": "Vårgårda, Älvsborg county, Sweden",
      "geocoding": {
        "formatted_address": "Vårgårda, Sweden",
        "location": {
          "lat": 58.0323039,
          "lng": 12.8089764
        }
      }
    },
    {
      "index": 82,
      "company_name": "Vårgårda Cementfabrik",
      "location": "Vårgårda",
      "power_station_name": "subscription from Västra station",
      "power_source": "subscription",
      "installed_capacity_kva": 10000,
      "full_location": "Vårgårda, Älvsborg county, Sweden",
      "geocoding": {
        "formatted_address": "Vårgårda, Sweden",
        "location": {
          "lat": 58.0323039,
          "lng": 12.8089764
        }
      }
    },
    {
      "index": 83,
      "company_name": "Vårgårda stations el. distr.",
      "location": "Vårgårda",
      "power_station_name": "subscription from Västra station",
      "power_source": "subscription",
      "installed_capacity_kva": 10000,
      "full_location": "Vårgårda, Älvsborg county, Sweden",
      "geocoding": {
        "formatted_address": "Vårgårda, Sweden",
        "location": {
          "lat": 58.0323039,
          "lng": 12.8089764
        }
      }
    },
    {
      "index": 86,
      "company_name": "Jenny Anjon",
      "location": "Hudene",
      "power_station_name": "Trolleybo",
      "power_source": "diesel",
      "installed_capacity_kva": 1100,
      "full_location": "Hudene, Älvsborg county, Sweden",
      "geocoding": {
        "formatted_address": "524 92 Hudene, Sweden",
        "location": {
          "lat": 58.0535471,
          "lng": 13.0930517
        }
      }
    },
    {
      "index": 87,
      "company_name": "A.-B. Kvisle kraftstation",
      "location": "Kvisle",
      "power_station_name": null,
      "power_source": "water",
      "installed_capacity_kva": 10000,
      "full_location": "Kvisle, Älvsborg county, Sweden",
      "geocoding": {
        "formatted_address": "Älvsborg, Gothenburg, Sweden",
        "location": {
          "lat": 57.6740043,
          "lng": 11.881866
        }
      }
    }
  ],
  "filename": "Älvsborg_3.png"
}