{
  "data": [
    {
      "index": 97,
      "company_name": "Käcka Lerviks Gryth A.B.",
      "location": "Fellingsbro",
      "power_station_name": null,
      "power_source": "water",
      "installed_capacity_kva": 500,
      "full_location": "Fellingsbro, Örebro county, Sweden",
      "geocoding": {
        "formatted_address": "732 71 Fellingsbro, Sweden",
        "location": {
          "lat": 59.4336976,
          "lng": 15.5915016
        }
      }
    },
    {
      "index": 98,
      "company_name": "Fellingsbro V:a Vatten A.B.",
      "location": "Yxsjön",
      "power_station_name": null,
      "power_source": "water",
      "installed_capacity_kva": 2000,
      "full_location": "Yxsjön, Örebro county, Sweden",
      "geocoding": {
        "formatted_address": "713 94 Yxsjön, Sweden",
        "location": {
          "lat": 59.6815268,
          "lng": 14.8656326
        }
      }
    },
    {
      "index": 99,
      "company_name": "Kraft. Gryth. Ab.",
      "location": "Grythyttan",
      "power_station_name": "Vansätra",
      "power_source": "water",
      "installed_capacity_kva": 5000,
      "full_location": "Grythyttan, Örebro county, Sweden",
      "geocoding": {
        "formatted_address": "712 60 Grythyttan, Sweden",
        "location": {
          "lat": 59.7054717,
          "lng": 14.5355955
        }
      }
    },
    {
      "index": 100,
      "company_name": "A.-B. Sikforsen",
      "location": "Järnboås",
      "power_station_name": "Förmalfyttan",
      "power_source": "water",
      "installed_capacity_kva": 500,
      "full_location": "Järnboås, Örebro county, Sweden",
      "geocoding": {
        "formatted_address": "713 94 Järnboås, Sweden",
        "location": {
          "lat": 59.6455388,
          "lng": 14.8967203
        }
      }
    },
    {
      "index": 101,
      "company_name": "Hjalpjö",
      "location": "Bredsjö, övre D.",
      "power_station_name": null,
      "power_source": "steam",
      "installed_capacity_kva": 2500,
      "full_location": "Bredsjö, övre D., Örebro county, Sweden",
      "geocoding": {
        "formatted_address": "712 91 Bredsjö, Sweden",
        "location": {
          "lat": 59.8312878,
          "lng": 14.7371356
        }
      }
    },
    {
      "index": 102,
      "company_name": "O.-B. Sigfridsen",
      "location": "Övre Nymanmark",
      "power_station_name": null,
      "power_source": "water",
      "installed_capacity_kva": 2000,
      "full_location": "Övre Nymanmark, Örebro county, Sweden",
      "geocoding": {
        "formatted_address": "Örebro County, Sweden",
        "location": {
          "lat": 59.535036,
          "lng": 15.0065731
        }
      }
    },
    {
      "index": 103,
      "company_name": "A.-B. Sjöström-Holmlund",
      "location": "Natter",
      "power_station_name": null,
      "power_source": "water",
      "installed_capacity_kva": 3000,
      "full_location": "Natter, Örebro county, Sweden",
      "geocoding": {
        "formatted_address": "Örebro County, Sweden",
        "location": {
          "lat": 59.535036,
          "lng": 15.0065731
        }
      }
    },
    {
      "index": 104,
      "company_name": "O.-B. Sjöservice",
      "location": "?",
      "power_station_name": "Grythohyttan",
      "power_source": "water",
      "installed_capacity_kva": 2900,
      "full_location": "?, Örebro county, Sweden",
      "geocoding": {
        "formatted_address": "Örebro County, Sweden",
        "location": {
          "lat": 59.535036,
          "lng": 15.0065731
        }
      }
    },
    {
      "index": 105,
      "company_name": "Ekengårdens Kraft",
      "location": "Pershyttefors,",
      "power_station_name": null,
      "power_source": "water",
      "installed_capacity_kva": 3500,
      "full_location": "Pershyttefors,, Örebro county, Sweden",
      "geocoding": {
        "formatted_address": "Örebro County, Sweden",
        "location": {
          "lat": 59.535036,
          "lng": 15.0065731
        }
      }
    },
    {
      "index": 106,
      "company_name": "Skagerskus",
      "location": "Karlskoga",
      "power_station_name": "Sjäx.,",
      "power_source": "water",
      "installed_capacity_kva": 500,
      "full_location": "Karlskoga, Örebro county, Sweden",
      "geocoding": {
        "formatted_address": "Karlskoga, Sweden",
        "location": {
          "lat": 59.32863399999999,
          "lng": 14.536414
        }
      }
    },
    {
      "index": 107,
      "company_name": "Bodens Kraft",
      "location": "Grönköp",
      "power_station_name": null,
      "power_source": "water",
      "installed_capacity_kva": 2100,
      "full_location": "Grönköp, Örebro county, Sweden",
      "geocoding": {
        "formatted_address": "Örebro County, Sweden",
        "location": {
          "lat": 59.535036,
          "lng": 15.0065731
        }
      }
    },
    {
      "index": 108,
      "company_name": "Hörnbergs-Lund",
      "location": "Vansätra,",
      "power_station_name": "Smånäsan",
      "power_source": "water",
      "installed_capacity_kva": 3400,
      "full_location": "Vansätra,, Örebro county, Sweden",
      "geocoding": {
        "formatted_address": "Örebro County, Sweden",
        "location": {
          "lat": 59.535036,
          "lng": 15.0065731
        }
      }
    },
    {
      "index": 109,
      "company_name": "A.-B. Bårdgelöt & Hallyn",
      "location": "Björkö",
      "power_station_name": "Limloktorp",
      "power_source": "water",
      "installed_capacity_kva": 2800,
      "full_location": "Björkö, Örebro county, Sweden",
      "geocoding": {
        "formatted_address": "692 91 Björka, Sweden",
        "location": {
          "lat": 59.15,
          "lng": 15.266667
        }
      }
    },
    {
      "index": 110,
      "company_name": "Räggen Kraftstation",
      "location": "Ollingeån",
      "power_station_name": null,
      "power_source": "water",
      "installed_capacity_kva": 300,
      "full_location": "Ollingeån, Örebro county, Sweden",
      "geocoding": {
        "formatted_address": "Örebro County, Sweden",
        "location": {
          "lat": 59.535036,
          "lng": 15.0065731
        }
      }
    },
    {
      "index": 111,
      "company_name": "Fellingsbro Station",
      "location": "?",
      "power_station_name": "Vibäck",
      "power_source": "water",
      "installed_capacity_kva": 1200,
      "full_location": "?, Örebro county, Sweden",
      "geocoding": {
        "formatted_address": "Örebro County, Sweden",
        "location": {
          "lat": 59.535036,
          "lng": 15.0065731
        }
      }
    },
    {
      "index": 112,
      "company_name": "Skippersbro Kraft",
      "location": "Hjulsjö",
      "power_station_name": "Morhyttan",
      "power_source": "steam",
      "installed_capacity_kva": 400,
      "full_location": "Hjulsjö, Örebro county, Sweden",
      "geocoding": {
        "formatted_address": "712 91 Hjulsjö, Sweden",
        "location": {
          "lat": 59.7841349,
          "lng": 14.7780656
        }
      }
    },
    {
      "index": 113,
      "company_name": "Bodens A.-B. Haspeliks",
      "location": "Hjulsjö",
      "power_station_name": null,
      "power_source": "water",
      "installed_capacity_kva": 0,
      "full_location": "Hjulsjö, Örebro county, Sweden",
      "geocoding": {
        "formatted_address": "712 91 Hjulsjö, Sweden",
        "location": {
          "lat": 59.7841349,
          "lng": 14.7780656
        }
      }
    },
    {
      "index": 114,
      "company_name": "Hjulsjö L. A.b.",
      "location": "Hjulsjö",
      "power_station_name": null,
      "power_source": "water",
      "installed_capacity_kva": 0,
      "full_location": "Hjulsjö, Örebro county, Sweden",
      "geocoding": {
        "formatted_address": "712 91 Hjulsjö, Sweden",
        "location": {
          "lat": 59.7841349,
          "lng": 14.7780656
        }
      }
    },
    {
      "index": 115,
      "company_name": "Nyfors K. Karlskog",
      "location": "Karlskoga",
      "power_station_name": "Karlsvik",
      "power_source": "water",
      "installed_capacity_kva": 0,
      "full_location": "Karlskoga, Örebro county, Sweden",
      "geocoding": {
        "formatted_address": "Karlskoga, Sweden",
        "location": {
          "lat": 59.32863399999999,
          "lng": 14.536414
        }
      }
    }
  ],
  "filename": "Örebro_4.png"
}