{
  "Närlunda, Målilla, Yvetå och Gårdveta, Kalmar county, Sweden": {
    "formatted_address": "577 73 Gårdveda, Sweden",
    "location": {
      "lat": 57.3810866,
      "lng": 15.7557946
    }
  },
  "Målilla, Kalmar county, Sweden": {
    "formatted_address": "577 74 Målilla, Sweden",
    "location": {
      "lat": 57.3891396,
      "lng": 15.8162213
    }
  },
  "Väster, Vimmerby, Kalmar county, Sweden": {
    "formatted_address": "Vimmerby, Sweden",
    "location": {
      "lat": 57.6690339,
      "lng": 15.858857
    }
  },
  "Åmåns, Kalmar county, Sweden": {
    "formatted_address": "Kalmar County, Sweden",
    "location": {
      "lat": 57.0942447,
      "lng": 16.5435605
    }
  },
  "Virserum, Kalmar county, Sweden": {
    "formatted_address": "577 71 Virserum, Sweden",
    "location": {
      "lat": 57.3199949,
      "lng": 15.5812344
    }
  },
  "Mörtfors, Kalmar county, Sweden": {
    "formatted_address": "572 96 Mörtfors, Sweden",
    "location": {
      "lat": 57.5235351,
      "lng": 16.470827
    }
  },
  "Mörlunda, Kalmar county, Sweden": {
    "formatted_address": "577 75 Mörlunda, Sweden",
    "location": {
      "lat": 57.32104990000001,
      "lng": 15.8635239
    }
  },
  "Högsby, Kalmar county, Sweden": {
    "formatted_address": "Högsby, Sweden",
    "location": {
      "lat": 57.17260400000001,
      "lng": 16.020619
    }
  },
  "Fagerhult, Kalmar county, Sweden": {
    "formatted_address": "579 94 Fagerhult, Sweden",
    "location": {
      "lat": 57.1476793,
      "lng": 15.6626605
    }
  },
  "Kråksemåla, Kalmar county, Sweden": {
    "formatted_address": "382 74 Kråksmåla, Sweden",
    "location": {
      "lat": 57.0216226,
      "lng": 15.8569438
    }
  },
  "Högsby Filseryd, Kalmar county, Sweden": {
    "formatted_address": "Högsby, Sweden",
    "location": {
      "lat": 57.17260400000001,
      "lng": 16.020619
    }
  },
  "Fågelfors, Kalmar county, Sweden": {
    "formatted_address": "579 72 Fågelfors, Sweden",
    "location": {
      "lat": 57.20390339999999,
      "lng": 15.8489663
    }
  },
  "Ab. fr. Finsjö Kraft, Långelamåla, Kalmar county, Sweden": {
    "formatted_address": "384 73 Finsjö, Sweden",
    "location": {
      "lat": 57.1496854,
      "lng": 16.2444178
    }
  },
  "Filseryd, Kalmar county, Sweden": {
    "formatted_address": "Kalmar County, Sweden",
    "location": {
      "lat": 57.0942447,
      "lng": 16.5435605
    }
  },
  "Oskarshamn, Kalmar county, Sweden": {
    "formatted_address": "Oskarshamn, Sweden",
    "location": {
      "lat": 57.26569929999999,
      "lng": 16.4473984
    }
  },
  "Döderhult, Kalmar county, Sweden": {
    "formatted_address": "572 51 Döderhult, Sweden",
    "location": {
      "lat": 57.2678194,
      "lng": 16.4022069
    }
  },
  "Emfors, Kalmar county, Sweden": {
    "formatted_address": "572 74 Emsfors, Sweden",
    "location": {
      "lat": 57.1450444,
      "lng": 16.4535047
    }
  },
  "Hornsö, Kalmar county, Sweden": {
    "formatted_address": "384 91 Hornsö, Sweden",
    "location": {
      "lat": 57.0060036,
      "lng": 16.2195034
    }
  },
  "Ålem, Kalmar county, Sweden": {
    "formatted_address": "384 40 Ålem, Sweden",
    "location": {
      "lat": 56.948897,
      "lng": 16.3844023
    }
  },
  "Ab. fr. Finsjö Kraft, Ålem, Kalmar county, Sweden": {
    "formatted_address": "384 73 Finsjö, Sweden",
    "location": {
      "lat": 57.1496854,
      "lng": 16.2444178
    }
  },
  "Hallingeberg, Kalmar county, Sweden": {
    "formatted_address": "594 91 Hallingeberg, Sweden",
    "location": {
      "lat": 57.8295544,
      "lng": 16.2505003
    }
  },
  "Svarterström, Kalmar county, Sweden": {
    "formatted_address": "Kalmar County, Sweden",
    "location": {
      "lat": 57.0942447,
      "lng": 16.5435605
    }
  },
  "Västervik, Kalmar county, Sweden": {
    "formatted_address": "Västervik, Sweden",
    "location": {
      "lat": 57.75771559999999,
      "lng": 16.6369759
    }
  },
  "Vestrum, Kalmar county, Sweden": {
    "formatted_address": "Kalmar County, Sweden",
    "location": {
      "lat": 57.0942447,
      "lng": 16.5435605
    }
  },
  "Hjorted, Kalmar county, Sweden": {
    "formatted_address": "593 73 Hjorted, Sweden",
    "location": {
      "lat": 57.62104660000001,
      "lng": 16.3070939
    }
  },
  "Locknevi, Kalmar county, Sweden": {
    "formatted_address": "598 94 Locknevi, Sweden",
    "location": {
      "lat": 57.7969155,
      "lng": 16.0795877
    }
  },
  "Fagesla kvarn, Kalmar county, Sweden": {
    "formatted_address": "Kalmar County, Sweden",
    "location": {
      "lat": 57.0942447,
      "lng": 16.5435605
    }
  },
  "Djurstala, Kalmar county, Sweden": {
    "formatted_address": "Kalmar County, Sweden",
    "location": {
      "lat": 57.0942447,
      "lng": 16.5435605
    }
  },
  "Vimmerby landsf., Kalmar county, Sweden": {
    "formatted_address": "Vimmerby, Sweden",
    "location": {
      "lat": 57.6690339,
      "lng": 15.858857
    }
  },
  "Mindre kraftanläggn., Kalmar county, Sweden": {
    "formatted_address": "Kalmar County, Sweden",
    "location": {
      "lat": 57.0942447,
      "lng": 16.5435605
    }
  },
  "Vimmerby stad, Kalmar county, Sweden": {
    "formatted_address": "Vimmerby, Sweden",
    "location": {
      "lat": 57.6690339,
      "lng": 15.858857
    }
  },
  ", Kalmar county, Sweden": {
    "formatted_address": "Kalmar County, Sweden",
    "location": {
      "lat": 57.0942447,
      "lng": 16.5435605
    }
  },
  "Lönneberga, Kalmar county, Sweden": {
    "formatted_address": "577 94 Lönneberga, Sweden",
    "location": {
      "lat": 57.5520386,
      "lng": 15.7208874
    }
  },
  "Hallefors, Kalmar county, Sweden": {
    "formatted_address": "Kalmar County, Sweden",
    "location": {
      "lat": 57.0942447,
      "lng": 16.5435605
    }
  },
  "Vimmerby, Kalmar county, Sweden": {
    "formatted_address": "Vimmerby, Sweden",
    "location": {
      "lat": 57.6690339,
      "lng": 15.858857
    }
  },
  "Vena, Kalmar county, Sweden": {
    "formatted_address": "577 90 Vena, Sweden",
    "location": {
      "lat": 57.5217521,
      "lng": 15.9686368
    }
  },
  "Tuna, Kalmar county, Sweden": {
    "formatted_address": "598 96 Tuna, Sweden",
    "location": {
      "lat": 57.5758789,
      "lng": 16.1066799
    }
  },
  "Mjösjö, Kalmar county, Sweden": {
    "formatted_address": "Kalmar County, Sweden",
    "location": {
      "lat": 57.0942447,
      "lng": 16.5435605
    }
  },
  "Kvilleberg, Kalmar county, Sweden": {
    "formatted_address": "Kalmar County, Sweden",
    "location": {
      "lat": 57.0942447,
      "lng": 16.5435605
    }
  },
  "Syserum, Kalmar county, Sweden": {
    "formatted_address": "Kalmar County, Sweden",
    "location": {
      "lat": 57.0942447,
      "lng": 16.5435605
    }
  },
  "Misterhult, Kalmar county, Sweden": {
    "formatted_address": "572 95 Misterhult, Sweden",
    "location": {
      "lat": 57.4632217,
      "lng": 16.5496304
    }
  },
  "Pacbo, Kalmar county, Sweden": {
    "formatted_address": "Kalmar County, Sweden",
    "location": {
      "lat": 57.0942447,
      "lng": 16.5435605
    }
  },
  "Övedal, Kalmar county, Sweden": {
    "formatted_address": "Kalmar County, Sweden",
    "location": {
      "lat": 57.0942447,
      "lng": 16.5435605
    }
  },
  "Färbo, Kalmar county, Sweden": {
    "formatted_address": "572 76 Fårbo, Sweden",
    "location": {
      "lat": 57.38322530000001,
      "lng": 16.4838604
    }
  },
  "Witebo, Kalmar county, Sweden": {
    "formatted_address": "Kalmar County, Sweden",
    "location": {
      "lat": 57.0942447,
      "lng": 16.5435605
    }
  },
  "Wirkwarm, Kalmar county, Sweden": {
    "formatted_address": "Kalmar County, Sweden",
    "location": {
      "lat": 57.0942447,
      "lng": 16.5435605
    }
  },
  "Fjägleholm, Kalmar county, Sweden": {
    "formatted_address": "Kalmar County, Sweden",
    "location": {
      "lat": 57.0942447,
      "lng": 16.5435605
    }
  },
  "Järreda, Kalmar county, Sweden": {
    "formatted_address": "Kalmar County, Sweden",
    "location": {
      "lat": 57.0942447,
      "lng": 16.5435605
    }
  },
  "Gårvedö, Kalmar county, Sweden": {
    "formatted_address": "Kalmar County, Sweden",
    "location": {
      "lat": 57.0942447,
      "lng": 16.5435605
    }
  },
  "Långsele, Västernorrland county, Sweden": {
    "formatted_address": "882 40 Långsele parish, Sweden",
    "location": {
      "lat": 63.1764937,
      "lng": 17.0587209
    }
  },
  "Österforse, Västernorrland county, Sweden": {
    "formatted_address": "882 91 Österforse, Sweden",
    "location": {
      "lat": 63.15470449999999,
      "lng": 17.0239336
    }
  },
  "Östergraninge, Västernorrland county, Sweden": {
    "formatted_address": "882 95 Östergraninge, Sweden",
    "location": {
      "lat": 62.9955746,
      "lng": 17.1550568
    }
  },
  "Graninge, Västernorrland county, Sweden": {
    "formatted_address": "882 95 Graninge, Sweden",
    "location": {
      "lat": 63.0712679,
      "lng": 16.9396816
    }
  },
  "Helgum, Västernorrland county, Sweden": {
    "formatted_address": "882 93 Helgum, Sweden",
    "location": {
      "lat": 63.15145390000001,
      "lng": 16.9495312
    }
  },
  "Överlännäs, Västernorrland county, Sweden": {
    "formatted_address": "881 95 Överlännäs, Sweden",
    "location": {
      "lat": 63.16036750000001,
      "lng": 17.6554516
    }
  },
  "Boteå, Västernorrland county, Sweden": {
    "formatted_address": "881 95 Boteå, Sweden",
    "location": {
      "lat": 63.1343019,
      "lng": 17.7126567
    }
  },
  "-, Västernorrland county, Sweden": {
    "formatted_address": "Västernorrland County, Sweden",
    "location": {
      "lat": 62.98552900000001,
      "lng": 18.1258604
    }
  },
  "Styrnäs, Västernorrland county, Sweden": {
    "formatted_address": "873 94 Styrnäs, Sweden",
    "location": {
      "lat": 63.08754579999999,
      "lng": 17.7745561
    }
  },
  "Ytterlännäs, Västernorrland county, Sweden": {
    "formatted_address": "873 30 Ytterlännäs, Sweden",
    "location": {
      "lat": 63.0061507,
      "lng": 17.6852257
    }
  },
  "Frosed, Västernorrland county, Sweden": {
    "formatted_address": "Västernorrland County, Sweden",
    "location": {
      "lat": 62.98552900000001,
      "lng": 18.1258604
    }
  },
  "Västertorps, Västernorrland county, Sweden": {
    "formatted_address": "873 91 Västertorp, Sweden",
    "location": {
      "lat": 62.9990554,
      "lng": 17.399592
    }
  },
  "Box, Västernorrland county, Sweden": {
    "formatted_address": "Västernorrland County, Sweden",
    "location": {
      "lat": 62.98552900000001,
      "lng": 18.1258604
    }
  },
  "Nyland, Västernorrland county, Sweden": {
    "formatted_address": "873 71 Nyland, Sweden",
    "location": {
      "lat": 63.00667439999999,
      "lng": 17.7564249
    }
  },
  "Bosjö, Västernorrland county, Sweden": {
    "formatted_address": "Västernorrland County, Sweden",
    "location": {
      "lat": 62.98552900000001,
      "lng": 18.1258604
    }
  },
  "Säbrå, Västernorrland county, Sweden": {
    "formatted_address": "Västernorrland County, Sweden",
    "location": {
      "lat": 62.98552900000001,
      "lng": 18.1258604
    }
  },
  "Härnösand, Västernorrland county, Sweden": {
    "formatted_address": "Härnösand, Sweden",
    "location": {
      "lat": 62.6322698,
      "lng": 17.9408714
    }
  },
  "Överål, Västernorrland county, Sweden": {
    "formatted_address": "Västernorrland County, Sweden",
    "location": {
      "lat": 62.98552900000001,
      "lng": 18.1258604
    }
  },
  "Alnö, Västernorrland county, Sweden": {
    "formatted_address": "Alnön, Sweden",
    "location": {
      "lat": 62.4035166,
      "lng": 17.4604069
    }
  },
  "Aspnäs, Västernorrland county, Sweden": {
    "formatted_address": "871 95 Aspnäs, Sweden",
    "location": {
      "lat": 62.741105,
      "lng": 17.7031125
    }
  },
  "Iönviken, Västernorrland county, Sweden": {
    "formatted_address": "Västernorrland County, Sweden",
    "location": {
      "lat": 62.98552900000001,
      "lng": 18.1258604
    }
  },
  "Lövvvik, Västernorrland county, Sweden": {
    "formatted_address": "872 94 Lövvik, Sweden",
    "location": {
      "lat": 62.7995622,
      "lng": 18.0840902
    }
  },
  "Stigsjö, Västernorrland county, Sweden": {
    "formatted_address": "871 92 Stigsjö, Sweden",
    "location": {
      "lat": 62.63905070000001,
      "lng": 17.6704024
    }
  },
  "Brunne, Västernorrland county, Sweden": {
    "formatted_address": "871 92 Brunne, Sweden",
    "location": {
      "lat": 62.65393700000001,
      "lng": 17.6345911
    }
  },
  "Ullå Kvarn, Västernorrland county, Sweden": {
    "formatted_address": "873 72 Ullånger, Sweden",
    "location": {
      "lat": 63.0120779,
      "lng": 18.1867151
    }
  },
  "Vikersten, Västernorrland county, Sweden": {
    "formatted_address": "Västernorrland County, Sweden",
    "location": {
      "lat": 62.98552900000001,
      "lng": 18.1258604
    }
  },
  "Sörgårdens kvarn, Västernorrland county, Sweden": {
    "formatted_address": "871 92 Södergården, Sweden",
    "location": {
      "lat": 62.7312994,
      "lng": 17.5460133
    }
  },
  "Häggdånger, Västernorrland county, Sweden": {
    "formatted_address": "871 91 Häggdånger, Sweden",
    "location": {
      "lat": 62.5455285,
      "lng": 17.8162945
    }
  },
  "Angien, Västernorrland county, Sweden": {
    "formatted_address": "Västernorrland County, Sweden",
    "location": {
      "lat": 62.98552900000001,
      "lng": 18.1258604
    }
  },
  "Sjövik, Västernorrland county, Sweden": {
    "formatted_address": "871 66 Sjöviken, Sweden",
    "location": {
      "lat": 62.58581450000001,
      "lng": 18.0019248
    }
  },
  "By, Västernorrland county, Sweden": {
    "formatted_address": "Västernorrland County, Sweden",
    "location": {
      "lat": 62.98552900000001,
      "lng": 18.1258604
    }
  },
  "Arbik bruk, Västernorrland county, Sweden": {
    "formatted_address": "Västernorrland County, Sweden",
    "location": {
      "lat": 62.98552900000001,
      "lng": 18.1258604
    }
  },
  "Ullånger, Västernorrland county, Sweden": {
    "formatted_address": "873 72 Ullånger, Sweden",
    "location": {
      "lat": 63.0120779,
      "lng": 18.1867151
    }
  },
  "Viksjö, Västernorrland county, Sweden": {
    "formatted_address": "871 94 Viksjö, Sweden",
    "location": {
      "lat": 62.7688126,
      "lng": 17.4201491
    }
  },
  "Villola, Västernorrland county, Sweden": {
    "formatted_address": "Västernorrland County, Sweden",
    "location": {
      "lat": 62.98552900000001,
      "lng": 18.1258604
    }
  },
  "Trefas, Västernorrland county, Sweden": {
    "formatted_address": "Västernorrland County, Sweden",
    "location": {
      "lat": 62.98552900000001,
      "lng": 18.1258604
    }
  },
  "Nordvik, Västernorrland county, Sweden": {
    "formatted_address": "872 98 Nordvik, Sweden",
    "location": {
      "lat": 62.8484251,
      "lng": 18.0096405
    }
  },
  "Nordingrå, Västernorrland county, Sweden": {
    "formatted_address": "873 98 Nordingrå, Sweden",
    "location": {
      "lat": 62.9297115,
      "lng": 18.2920615
    }
  },
  "Salåker, Västernorrland county, Sweden": {
    "formatted_address": "Västernorrland County, Sweden",
    "location": {
      "lat": 62.98552900000001,
      "lng": 18.1258604
    }
  },
  "Järnsta, Västernorrland county, Sweden": {
    "formatted_address": "Järnsta, 873 98 Nordingrå, Sweden",
    "location": {
      "lat": 62.938648,
      "lng": 18.242045
    }
  },
  "Löfsta, Västernorrland county, Sweden": {
    "formatted_address": "882 95 Lövsta, Sweden",
    "location": {
      "lat": 63,
      "lng": 17.066667
    }
  },
  "D. V. Mörtsjö, Västernorrland county, Sweden": {
    "formatted_address": "897 90 Mörtsjö, Sweden",
    "location": {
      "lat": 63.50000000000001,
      "lng": 18.4833329
    }
  },
  "Nora, Västernorrland county, Sweden": {
    "formatted_address": "855 92 Nora, Sweden",
    "location": {
      "lat": 62.4948084,
      "lng": 16.9391827
    }
  },
  "Kråkås, Västernorrland county, Sweden": {
    "formatted_address": "Västernorrland County, Sweden",
    "location": {
      "lat": 62.98552900000001,
      "lng": 18.1258604
    }
  },
  "Herresta, Västernorrland county, Sweden": {
    "formatted_address": "873 96 Herresta, Sweden",
    "location": {
      "lat": 63.06149670000001,
      "lng": 18.324923
    }
  },
  "Satern, Västernorrland county, Sweden": {
    "formatted_address": "Västernorrland County, Sweden",
    "location": {
      "lat": 62.98552900000001,
      "lng": 18.1258604
    }
  },
  "Sandås, Västernorrland county, Sweden": {
    "formatted_address": "881 91 Sand, Sweden",
    "location": {
      "lat": 63.2526338,
      "lng": 17.1851915
    }
  },
  "Grönås, Västernorrland county, Sweden": {
    "formatted_address": "Västernorrland County, Sweden",
    "location": {
      "lat": 62.98552900000001,
      "lng": 18.1258604
    }
  },
  "Dala, Västernorrland county, Sweden": {
    "formatted_address": "872 97 Dala, Sweden",
    "location": {
      "lat": 62.9286298,
      "lng": 18.1109776
    }
  },
  "Skog, Västernorrland county, Sweden": {
    "formatted_address": "872 97 Skog, Sweden",
    "location": {
      "lat": 62.9387832,
      "lng": 18.0181584
    }
  },
  "Gudmundrå, Västernorrland county, Sweden": {
    "formatted_address": "872 34 Gudmundrå, Sweden",
    "location": {
      "lat": 62.91444360000001,
      "lng": 17.7891194
    }
  },
  "Moälv, Örebro county, Sweden": {
    "formatted_address": "Örebro County, Sweden",
    "location": {
      "lat": 59.535036,
      "lng": 15.0065731
    }
  },
  "Kilanda, Örebro county, Sweden": {
    "formatted_address": "Örebro County, Sweden",
    "location": {
      "lat": 59.535036,
      "lng": 15.0065731
    }
  },
  "Västra Tysslinge, Örebro county, Sweden": {
    "formatted_address": "719 95 Tysslinge, Sweden",
    "location": {
      "lat": 59.2852115,
      "lng": 15.0198075
    }
  },
  "Tysslinge, Örebro county, Sweden": {
    "formatted_address": "719 95 Tysslinge, Sweden",
    "location": {
      "lat": 59.2852115,
      "lng": 15.0198075
    }
  },
  "Långbro, Anta, Örebro county, Sweden": {
    "formatted_address": "703 48 Längbro parish, Sweden",
    "location": {
      "lat": 59.2779631,
      "lng": 15.1500773
    }
  },
  "Örebro, Örebro county, Sweden": {
    "formatted_address": "Örebro, Sweden",
    "location": {
      "lat": 59.2752626,
      "lng": 15.2134105
    }
  },
  "Sjöbäck, Örebro county, Sweden": {
    "formatted_address": "Örebro County, Sweden",
    "location": {
      "lat": 59.535036,
      "lng": 15.0065731
    }
  },
  "Ahlby, Mbab Albro, Örebro county, Sweden": {
    "formatted_address": "Örebro County, Sweden",
    "location": {
      "lat": 59.535036,
      "lng": 15.0065731
    }
  },
  "Västra Långbro Kyrka, Örebro county, Sweden": {
    "formatted_address": "Församlingsvägen 4, 703 48 Örebro, Sweden",
    "location": {
      "lat": 59.2787179,
      "lng": 15.1512983
    }
  },
  "Dylta kvams, Örebro county, Sweden": {
    "formatted_address": "Södra Dylta, 718 96 Dyltabruk, Sweden",
    "location": {
      "lat": 59.41936699999999,
      "lng": 15.231958
    }
  },
  "Knäred, Halland county, Sweden": {
    "formatted_address": "312 51 Knäred, Sweden",
    "location": {
      "lat": 56.5200958,
      "lng": 13.3166101
    }
  },
  "Östra Karup, Halland county, Sweden": {
    "formatted_address": "269 41 Östra Karup, Sweden",
    "location": {
      "lat": 56.4198711,
      "lng": 12.9411773
    }
  },
  "Hässle, Halland county, Sweden": {
    "formatted_address": "Halland County, Sweden",
    "location": {
      "lat": 56.7957699,
      "lng": 12.893493
    }
  },
  "Hisshult, Halland county, Sweden": {
    "formatted_address": "Halland County, Sweden",
    "location": {
      "lat": 56.7957699,
      "lng": 12.893493
    }
  },
  "Örkeljunga, Halland county, Sweden": {
    "formatted_address": "Örkelljunga, Sweden",
    "location": {
      "lat": 56.273964,
      "lng": 13.2922763
    }
  },
  "Grimeton, Halland county, Sweden": {
    "formatted_address": "432 98 Grimeton, Sweden",
    "location": {
      "lat": 57.1124082,
      "lng": 12.4253021
    }
  },
  "Vittsjö sn, Kristianstad county, Sweden": {
    "formatted_address": "282 66 Vittsjö, Sweden",
    "location": {
      "lat": 56.34330929999999,
      "lng": 13.6628735
    }
  },
  "Visseltofta sn, Kristianstad county, Sweden": {
    "formatted_address": "283 95 Visseltofta, Sweden",
    "location": {
      "lat": 56.4245278,
      "lng": 13.8582409
    }
  },
  "Verum sn, Kristianstad county, Sweden": {
    "formatted_address": "282 68 Verum, Sweden",
    "location": {
      "lat": 56.366667,
      "lng": 13.783333
    }
  },
  "Bjärnum, Kristianstad county, Sweden": {
    "formatted_address": "282 61 Bjärnum, Sweden",
    "location": {
      "lat": 56.2914154,
      "lng": 13.7097126
    }
  },
  "Hörby sn, Kristianstad county, Sweden": {
    "formatted_address": "Hörby, Sweden",
    "location": {
      "lat": 55.8508109,
      "lng": 13.6599486
    }
  },
  "Finja sn, Kristianstad county, Sweden": {
    "formatted_address": "281 53 Finja, Sweden",
    "location": {
      "lat": 56.1681562,
      "lng": 13.694527
    }
  },
  "Vanviks sn, Kristianstad county, Sweden": {
    "formatted_address": "Skåne County, Sweden",
    "location": {
      "lat": 55.99025719999999,
      "lng": 13.5957692
    }
  },
  "Stoby sn, Kristianstad county, Sweden": {
    "formatted_address": "281 44 Stoby, Sweden",
    "location": {
      "lat": 56.17505019999999,
      "lng": 13.828094
    }
  },
  "Norra Sandby sn, Kristianstad county, Sweden": {
    "formatted_address": "281 91 Norra Sandby, Sweden",
    "location": {
      "lat": 56.2002635,
      "lng": 13.9196599
    }
  },
  "Hässleholm sn, Kristianstad county, Sweden": {
    "formatted_address": "Hässleholm, Sweden",
    "location": {
      "lat": 56.15891449999999,
      "lng": 13.7667655
    }
  },
  "Hässleholm, Kristianstad county, Sweden": {
    "formatted_address": "Hässleholm, Sweden",
    "location": {
      "lat": 56.15891449999999,
      "lng": 13.7667655
    }
  },
  "Marbäck, Älvsborg county, Sweden": {
    "formatted_address": "523 93 Marbäck, Sweden",
    "location": {
      "lat": 57.7401023,
      "lng": 13.4196967
    }
  },
  "Mästocka, Älvsborg county, Sweden": {
    "formatted_address": "312 92 Mästocka, Sweden",
    "location": {
      "lat": 56.60767730000001,
      "lng": 13.2511668
    }
  },
  "Gillstad, Älvsborg county, Sweden": {
    "formatted_address": "531 97 Gillstad, Sweden",
    "location": {
      "lat": 58.44128039999999,
      "lng": 12.9599144
    }
  },
  "Berga, Älvsborg county, Sweden": {
    "formatted_address": "542 92 Berga, Sweden",
    "location": {
      "lat": 58.73825149999999,
      "lng": 13.9113436
    }
  },
  "Örsån, Älvsborg county, Sweden": {
    "formatted_address": "Älvsborg, Gothenburg, Sweden",
    "location": {
      "lat": 57.6740043,
      "lng": 11.881866
    }
  },
  "Bönaväg, Älvsborg county, Sweden": {
    "formatted_address": "Älvsborg, Gothenburg, Sweden",
    "location": {
      "lat": 57.6740043,
      "lng": 11.881866
    }
  },
  "Jömarp, Älvsborg county, Sweden": {
    "formatted_address": "Älvsborg, Gothenburg, Sweden",
    "location": {
      "lat": 57.6740043,
      "lng": 11.881866
    }
  },
  "Ods kvarn, Älvsborg county, Sweden": {
    "formatted_address": "Kvarnvägen 10, 514 60 Dalstorp, Sweden",
    "location": {
      "lat": 57.6028112,
      "lng": 13.515718
    }
  },
  "Ljungskarp, Älvsborg county, Sweden": {
    "formatted_address": "Älvsborg, Gothenburg, Sweden",
    "location": {
      "lat": 57.6740043,
      "lng": 11.881866
    }
  },
  "Björsdammen, Älvsborg county, Sweden": {
    "formatted_address": "Älvsborg, Gothenburg, Sweden",
    "location": {
      "lat": 57.6740043,
      "lng": 11.881866
    }
  },
  "S. Åserp, Älvsborg county, Sweden": {
    "formatted_address": "Älvsborg, Gothenburg, Sweden",
    "location": {
      "lat": 57.6740043,
      "lng": 11.881866
    }
  },
  "Mossebo, Älvsborg county, Sweden": {
    "formatted_address": "543 91 Mossebo, Sweden",
    "location": {
      "lat": 58.4486351,
      "lng": 14.1518386
    }
  },
  "Mossebo kvarn, Älvsborg county, Sweden": {
    "formatted_address": "543 91 Mossebo, Sweden",
    "location": {
      "lat": 58.4486351,
      "lng": 14.1518386
    }
  },
  "Ambjörnarps, Älvsborg county, Sweden": {
    "formatted_address": "514 93 Ambjörnarp, Sweden",
    "location": {
      "lat": 57.42086159999999,
      "lng": 13.2943023
    }
  },
  "Hunnabo, Älvsborg county, Sweden": {
    "formatted_address": "514 93 Hunnabo, Sweden",
    "location": {
      "lat": 57.3909131,
      "lng": 13.269291
    }
  },
  "Skee, Älvsborg county, Sweden": {
    "formatted_address": "452 60 Skee, Sweden",
    "location": {
      "lat": 58.9240866,
      "lng": 11.2728434
    }
  },
  "Eke, Älvsborg county, Sweden": {
    "formatted_address": "623 40 Eke, Sweden",
    "location": {
      "lat": 57.1674172,
      "lng": 18.3785503
    }
  },
  "Sjunderup, Älvsborg county, Sweden": {
    "formatted_address": "Älvsborg, Gothenburg, Sweden",
    "location": {
      "lat": 57.6740043,
      "lng": 11.881866
    }
  },
  "Fröndha, Älvsborg county, Sweden": {
    "formatted_address": "Älvsborg, Gothenburg, Sweden",
    "location": {
      "lat": 57.6740043,
      "lng": 11.881866
    }
  },
  "Delary av, Älvsborg county, Sweden": {
    "formatted_address": "343 95 Delary, Sweden",
    "location": {
      "lat": 56.5490629,
      "lng": 13.9533081
    }
  },
  "Uddabo, Älvsborg county, Sweden": {
    "formatted_address": "382 92 Uddabo, Sweden",
    "location": {
      "lat": 56.7247089,
      "lng": 16.0536516
    }
  },
  "Skål, Älvsborg county, Sweden": {
    "formatted_address": "453 92 Skal, Sweden",
    "location": {
      "lat": 58.316667,
      "lng": 11.466667
    }
  },
  "Nästorna, Älvsborg county, Sweden": {
    "formatted_address": "Älvsborg, Gothenburg, Sweden",
    "location": {
      "lat": 57.6740043,
      "lng": 11.881866
    }
  },
  "Strömfons, Älvsborg county, Sweden": {
    "formatted_address": "Älvsborg, Gothenburg, Sweden",
    "location": {
      "lat": 57.6740043,
      "lng": 11.881866
    }
  },
  "Revsjö, Älvsborg county, Sweden": {
    "formatted_address": "Älvsborg, Gothenburg, Sweden",
    "location": {
      "lat": 57.6740043,
      "lng": 11.881866
    }
  },
  "Längehamn, Älvsborg county, Sweden": {
    "formatted_address": "Älvsborg, Gothenburg, Sweden",
    "location": {
      "lat": 57.6740043,
      "lng": 11.881866
    }
  },
  "Torestorps, Älvsborg county, Sweden": {
    "formatted_address": "511 93 Torestorp, Sweden",
    "location": {
      "lat": 57.3879421,
      "lng": 12.679999
    }
  },
  "Annefors, Älvsborg county, Sweden": {
    "formatted_address": "Älvsborg, Gothenburg, Sweden",
    "location": {
      "lat": 57.6740043,
      "lng": 11.881866
    }
  },
  "Borås, Älvsborg county, Sweden": {
    "formatted_address": "Borås, Sweden",
    "location": {
      "lat": 57.72103500000001,
      "lng": 12.939819
    }
  },
  "Älvkarleby, Älvsborg county, Sweden": {
    "formatted_address": "Älvkarleby, Sweden",
    "location": {
      "lat": 60.56860669999999,
      "lng": 17.4489129
    }
  },
  "Viskafors, Älvsborg county, Sweden": {
    "formatted_address": "515 32 Viskafors, Sweden",
    "location": {
      "lat": 57.63374469999999,
      "lng": 12.8568382
    }
  },
  "Ryd, Älvsborg county, Sweden": {
    "formatted_address": "507 71 Ryd, Sweden",
    "location": {
      "lat": 57.7061264,
      "lng": 13.0395237
    }
  },
  "Seglora, Älvsborg county, Sweden": {
    "formatted_address": "515 93 Seglora, Sweden",
    "location": {
      "lat": 57.5808323,
      "lng": 12.7332414
    }
  },
  "Viselback, Älvsborg county, Sweden": {
    "formatted_address": "Älvsborg, Gothenburg, Sweden",
    "location": {
      "lat": 57.6740043,
      "lng": 11.881866
    }
  },
  "Svenhom, Älvsborg county, Sweden": {
    "formatted_address": "Älvsborg, Gothenburg, Sweden",
    "location": {
      "lat": 57.6740043,
      "lng": 11.881866
    }
  },
  "Kinna, Älvsborg county, Sweden": {
    "formatted_address": "Kinna, Sweden",
    "location": {
      "lat": 57.506158,
      "lng": 12.6971981
    }
  },
  "Sösdala, Kristianstad county, Sweden": {
    "formatted_address": "282 72 Sösdala, Sweden",
    "location": {
      "lat": 56.0405672,
      "lng": 13.678025
    }
  },
  "Tjänarp, Kristianstad county, Sweden": {
    "formatted_address": "Skåne County, Sweden",
    "location": {
      "lat": 55.99025719999999,
      "lng": 13.5957692
    }
  },
  "Ignaberga, Kristianstad county, Sweden": {
    "formatted_address": "281 92 Ignaberga, Sweden",
    "location": {
      "lat": 56.1215093,
      "lng": 13.8352938
    }
  },
  "Vankiva, Kristianstad county, Sweden": {
    "formatted_address": "281 95 Vankiva, Sweden",
    "location": {
      "lat": 56.1993062,
      "lng": 13.7427572
    }
  },
  "Vinslöv, Kristianstad county, Sweden": {
    "formatted_address": "288 31 Vinslöv, Sweden",
    "location": {
      "lat": 56.1033485,
      "lng": 13.9129906
    }
  },
  "Önnestad, Kristianstad county, Sweden": {
    "formatted_address": "291 73 Önnestad, Sweden",
    "location": {
      "lat": 56.0575869,
      "lng": 14.023067
    }
  },
  "Loshult, Kristianstad county, Sweden": {
    "formatted_address": "283 96 Loshult, Sweden",
    "location": {
      "lat": 56.5019974,
      "lng": 14.1139177
    }
  },
  "Killeberg, Kristianstad county, Sweden": {
    "formatted_address": "283 76 Killeberg, Sweden",
    "location": {
      "lat": 56.475818,
      "lng": 14.0976176
    }
  },
  "Hökön, Kristianstad county, Sweden": {
    "formatted_address": "283 96 Hökön, Sweden",
    "location": {
      "lat": 56.4728053,
      "lng": 14.2230131
    }
  },
  "Osby, Kristianstad county, Sweden": {
    "formatted_address": "Osby, Sweden",
    "location": {
      "lat": 56.3815355,
      "lng": 13.9929413
    }
  },
  "Glimåkra, Kristianstad county, Sweden": {
    "formatted_address": "289 46 Glimåkra, Sweden",
    "location": {
      "lat": 56.3028124,
      "lng": 14.1337053
    }
  },
  "Örken, Kristianstad county, Sweden": {
    "formatted_address": "Skåne County, Sweden",
    "location": {
      "lat": 55.99025719999999,
      "lng": 13.5957692
    }
  },
  "Hästveda, Kristianstad county, Sweden": {
    "formatted_address": "282 75 Hästveda, Sweden",
    "location": {
      "lat": 56.28427989999999,
      "lng": 13.9352738
    }
  },
  "Glimminge, Kristianstad county, Sweden": {
    "formatted_address": "276 56 Glimminge, Sweden",
    "location": {
      "lat": 55.49792799999999,
      "lng": 14.2317
    }
  },
  "Skölvene, Älvsborg county, Sweden": {
    "formatted_address": "Skölvene, 524 93 Herrljunga, Sweden",
    "location": {
      "lat": 58.024651,
      "lng": 13.159147
    }
  },
  "Broddarp, Älvsborg county, Sweden": {
    "formatted_address": "524 96 Broddarp, Sweden",
    "location": {
      "lat": 57.9962028,
      "lng": 13.2978674
    }
  },
  "Hov, Älvsborg county, Sweden": {
    "formatted_address": "524 95 Hov, Sweden",
    "location": {
      "lat": 57.9938727,
      "lng": 13.113717
    }
  },
  "Annerstad, Älvsborg county, Sweden": {
    "formatted_address": "341 74 Annerstad, Sweden",
    "location": {
      "lat": 56.7599728,
      "lng": 13.7201415
    }
  },
  "Narunga, Älvsborg county, Sweden": {
    "formatted_address": "447 94 Nårunga, Sweden",
    "location": {
      "lat": 57.92703179999999,
      "lng": 12.7986177
    }
  },
  "Ornunga, Älvsborg county, Sweden": {
    "formatted_address": "447 93 Ornunga, Sweden",
    "location": {
      "lat": 57.97474369999999,
      "lng": 12.9102516
    }
  },
  "Töllsjö, Älvsborg county, Sweden": {
    "formatted_address": "517 70 Töllsjö, Sweden",
    "location": {
      "lat": 57.7951785,
      "lng": 12.6335019
    }
  },
  "Sandhult, Älvsborg county, Sweden": {
    "formatted_address": "504 78 Sandhult, Sweden",
    "location": {
      "lat": 57.7696401,
      "lng": 12.8210885
    }
  },
  "Hämo, Älvsborg county, Sweden": {
    "formatted_address": "Älvsborg, Gothenburg, Sweden",
    "location": {
      "lat": 57.6740043,
      "lng": 11.881866
    }
  },
  "Hällered, Älvsborg county, Sweden": {
    "formatted_address": "Hällered, 504 91 Sandhult, Sweden",
    "location": {
      "lat": 57.77975799999999,
      "lng": 12.782572
    }
  },
  "Hillared, Älvsborg county, Sweden": {
    "formatted_address": "512 76 Hillared, Sweden",
    "location": {
      "lat": 57.6305407,
      "lng": 13.1587937
    }
  },
  "Svenljunga, Älvsborg county, Sweden": {
    "formatted_address": "Svenljunga, Sweden",
    "location": {
      "lat": 57.4955715,
      "lng": 13.1146225
    }
  },
  "Toarp, Älvsborg county, Sweden": {
    "formatted_address": "238 41 Toarp, Sweden",
    "location": {
      "lat": 55.5405962,
      "lng": 13.1223355
    }
  },
  "Tingstatorp, Älvsborg county, Sweden": {
    "formatted_address": "Älvsborg, Gothenburg, Sweden",
    "location": {
      "lat": 57.6740043,
      "lng": 11.881866
    }
  },
  "Rångedala, Älvsborg county, Sweden": {
    "formatted_address": "516 93 Rångedala, Sweden",
    "location": {
      "lat": 57.79086780000001,
      "lng": 13.1232433
    }
  },
  "Bossebo, Älvsborg county, Sweden": {
    "formatted_address": "Älvsborg, Gothenburg, Sweden",
    "location": {
      "lat": 57.6740043,
      "lng": 11.881866
    }
  },
  "Fristad, Älvsborg county, Sweden": {
    "formatted_address": "513 34 Fristad, Sweden",
    "location": {
      "lat": 57.824945,
      "lng": 13.007778
    }
  },
  "Abera, Älvsborg county, Sweden": {
    "formatted_address": "Älvsborg, Gothenburg, Sweden",
    "location": {
      "lat": 57.6740043,
      "lng": 11.881866
    }
  },
  "Ulricehamn, Älvsborg county, Sweden": {
    "formatted_address": "Ulricehamn, Sweden",
    "location": {
      "lat": 57.7947889,
      "lng": 13.4205162
    }
  },
  "Varskog, Älvsborg county, Sweden": {
    "formatted_address": "Älvsborg, Gothenburg, Sweden",
    "location": {
      "lat": 57.6740043,
      "lng": 11.881866
    }
  },
  "Timmele, Älvsborg county, Sweden": {
    "formatted_address": "523 72 Timmele, Sweden",
    "location": {
      "lat": 57.8620525,
      "lng": 13.4305281
    }
  },
  "Dalsjöfors, Älvsborg county, Sweden": {
    "formatted_address": "516 34 Dalsjöfors, Sweden",
    "location": {
      "lat": 57.7177221,
      "lng": 13.1027254
    }
  },
  "Knapparp, Älvsborg county, Sweden": {
    "formatted_address": "Älvsborg, Gothenburg, Sweden",
    "location": {
      "lat": 57.6740043,
      "lng": 11.881866
    }
  },
  "Solberga, Älvsborg county, Sweden": {
    "formatted_address": "521 71 Solberga, Sweden",
    "location": {
      "lat": 57.98333299999999,
      "lng": 13.6
    }
  },
  "N. Åsarp, Älvsborg county, Sweden": {
    "formatted_address": "521 70 Asarp, Sweden",
    "location": {
      "lat": 58.023803,
      "lng": 13.5674878
    }
  },
  "Eskilstuna, Södermanland county, Sweden": {
    "formatted_address": "Eskilstuna, Sweden",
    "location": {
      "lat": 59.37124859999999,
      "lng": 16.5098045
    }
  },
  "Tunafors, Södermanland county, Sweden": {
    "formatted_address": "Tunafors, 633 57 Eskilstuna, Sweden",
    "location": {
      "lat": 59.35929340000001,
      "lng": 16.5192888
    }
  },
  "Samarbete med Eskilstuna el-verk, Södermanland county, Sweden": {
    "formatted_address": "Tunnbindarvägen 1, 632 23 Eskilstuna, Sweden",
    "location": {
      "lat": 59.3766834,
      "lng": 16.4675966
    }
  },
  "Torshälla, Södermanland county, Sweden": {
    "formatted_address": "Torshälla, Sweden",
    "location": {
      "lat": 59.42129649999999,
      "lng": 16.4769698
    }
  },
  "Tumbo, Råby-Rekarne, Södermanland county, Sweden": {
    "formatted_address": "635 12 Råby-Rekarne, Sweden",
    "location": {
      "lat": 59.38333300000001,
      "lng": 16.3
    }
  },
  "Tumbo, Råby, Södermanland county, Sweden": {
    "formatted_address": "635 35 Råby, Sweden",
    "location": {
      "lat": 59.2954233,
      "lng": 16.075834
    }
  },
  "Vallby, Södermanland county, Sweden": {
    "formatted_address": "635 09 Vallby, Sweden",
    "location": {
      "lat": 59.42139290000001,
      "lng": 16.5671456
    }
  },
  "Husby-Rekarne, Södermanland county, Sweden": {
    "formatted_address": "635 18 Husby-rekarne, Sweden",
    "location": {
      "lat": 59.24721820000001,
      "lng": 16.4759882
    }
  },
  "Stenkvista, Södermanland county, Sweden": {
    "formatted_address": "Stenkvista Stenkulla 1, 635 19 Eskilstuna, Sweden",
    "location": {
      "lat": 59.314417,
      "lng": 16.5327127
    }
  },
  "Ärla, Södermanland county, Sweden": {
    "formatted_address": "635 36 Ärla, Sweden",
    "location": {
      "lat": 59.2782348,
      "lng": 16.6857822
    }
  },
  "Lista, Södermanland county, Sweden": {
    "formatted_address": "635 14 Lista, Sweden",
    "location": {
      "lat": 59.31630509999999,
      "lng": 16.2710108
    }
  },
  "Öja, Väster, Södermanland county, Sweden": {
    "formatted_address": "Västerås, Sweden",
    "location": {
      "lat": 59.5798186,
      "lng": 16.5598824
    }
  },
  "Näsutla, Södermanland county, Sweden": {
    "formatted_address": "Södermanland County, Sweden",
    "location": {
      "lat": 59.03363489999999,
      "lng": 16.7518899
    }
  },
  "Sköldinge, Södermanland county, Sweden": {
    "formatted_address": "641 64 Sköldinge, Sweden",
    "location": {
      "lat": 59.0310046,
      "lng": 16.4460913
    }
  },
  "Kantorp, Södermanland county, Sweden": {
    "formatted_address": "641 99 Kantorp, Sweden",
    "location": {
      "lat": 59.02006849999999,
      "lng": 16.4700555
    }
  },
  "Floda, Södermanland county, Sweden": {
    "formatted_address": "641 97 Katrineholm, Sweden",
    "location": {
      "lat": 59.0671967,
      "lng": 16.3620865
    }
  },
  "Y. Vingåker, Floda, Södermanland county, Sweden": {
    "formatted_address": "Vingåker, Sweden",
    "location": {
      "lat": 59.04337529999999,
      "lng": 15.8709394
    }
  },
  "Julita, Södermanland county, Sweden": {
    "formatted_address": "643 60 Julita socken, Sweden",
    "location": {
      "lat": 59.14529270000001,
      "lng": 16.0613966
    }
  },
  "V. Vingåker, Södermanland county, Sweden": {
    "formatted_address": "Vingåker, Sweden",
    "location": {
      "lat": 59.04337529999999,
      "lng": 15.8709394
    }
  },
  "Högsjö, Södermanland county, Sweden": {
    "formatted_address": "643 62 Högsjö, Sweden",
    "location": {
      "lat": 59.028904,
      "lng": 15.6664749
    }
  },
  "Lerbo, Södermanland county, Sweden": {
    "formatted_address": "Lerbo socken, 641 62 Valla, Sweden",
    "location": {
      "lat": 58.987891,
      "lng": 16.430924
    }
  },
  "Katrineholm, Södermanland county, Sweden": {
    "formatted_address": "Katrineholm, Sweden",
    "location": {
      "lat": 58.99555109999999,
      "lng": 16.2054756
    }
  },
  "Vagnhärad, Södermanland county, Sweden": {
    "formatted_address": "619 71 Vagnhärad, Sweden",
    "location": {
      "lat": 58.9448192,
      "lng": 17.4889958
    }
  },
  "Vingåker, Södermanland county, Sweden": {
    "formatted_address": "Vingåker, Sweden",
    "location": {
      "lat": 59.04337529999999,
      "lng": 15.8709394
    }
  },
  "Strångsjö, Södermanland county, Sweden": {
    "formatted_address": "641 92 Strångsjö, Sweden",
    "location": {
      "lat": 58.9039119,
      "lng": 16.1928028
    }
  },
  "St. Malm, Södermanland county, Sweden": {
    "formatted_address": "Stora Malm kyrka, 641 93 Katrineholm, Sweden",
    "location": {
      "lat": 58.96764400000001,
      "lng": 16.360573
    }
  },
  "Bettna, Södermanland county, Sweden": {
    "formatted_address": "642 62 Bettna, Sweden",
    "location": {
      "lat": 58.90764369999999,
      "lng": 16.6355222
    }
  },
  "Björkvik, Södermanland county, Sweden": {
    "formatted_address": "641 63 Björkvik, Sweden",
    "location": {
      "lat": 58.83246219999999,
      "lng": 16.516314
    }
  },
  "Vrena, Södermanland county, Sweden": {
    "formatted_address": "611 73 Vrena, Sweden",
    "location": {
      "lat": 58.8605867,
      "lng": 16.6988805
    }
  },
  "Tuna, Lunda, Södermanland county, Sweden": {
    "formatted_address": "643 91 Lunda, Sweden",
    "location": {
      "lat": 59.06666699999999,
      "lng": 15.8
    }
  },
  "St. Nikolai, Södermanland county, Sweden": {
    "formatted_address": "Södermanland County, Sweden",
    "location": {
      "lat": 59.03363489999999,
      "lng": 16.7518899
    }
  },
  "Nyköping, Södermanland county, Sweden": {
    "formatted_address": "Nyköping, Sweden",
    "location": {
      "lat": 58.75284389999999,
      "lng": 17.0091593
    }
  },
  "Stjärnholm, Södermanland county, Sweden": {
    "formatted_address": "Oxelösund, 613 41 Oxelösund, Sweden",
    "location": {
      "lat": 58.6940267,
      "lng": 17.0322043
    }
  },
  "Oxelösund, Södermanland county, Sweden": {
    "formatted_address": "Oxelösund, Sweden",
    "location": {
      "lat": 58.6754851,
      "lng": 17.0749546
    }
  },
  "Eksjö, Jönköping county, Sweden": {
    "formatted_address": "575 92 Eksjo, Sweden",
    "location": {
      "lat": 57.6172,
      "lng": 15.22155
    }
  },
  "Aneberga, Jönköping county, Sweden": {
    "formatted_address": "Jonkoping County, Sweden",
    "location": {
      "lat": 57.3708434,
      "lng": 14.3439173
    }
  },
  ", Jönköping county, Sweden": {
    "formatted_address": "Jonkoping County, Sweden",
    "location": {
      "lat": 57.3708434,
      "lng": 14.3439173
    }
  },
  "Värne, Jönköping county, Sweden": {
    "formatted_address": "575 94 Värne, Sweden",
    "location": {
      "lat": 57.5384158,
      "lng": 15.0983139
    }
  },
  "Ingatorp, Jönköping county, Sweden": {
    "formatted_address": "575 97 Ingatorp, Sweden",
    "location": {
      "lat": 57.63714820000001,
      "lng": 15.415772
    }
  },
  "Ädelfors, Jönköping county, Sweden": {
    "formatted_address": "574 54 Ädelfors, Sweden",
    "location": {
      "lat": 57.40968659999999,
      "lng": 15.3188301
    }
  },
  "Kinda, Jönköping county, Sweden": {
    "formatted_address": "Jonkoping County, Sweden",
    "location": {
      "lat": 57.3708434,
      "lng": 14.3439173
    }
  },
  "Norra Sandsjö, Bodafors, Jönköping county, Sweden": {
    "formatted_address": "571 63 Norra Sandsjö, Sweden",
    "location": {
      "lat": 57.466936,
      "lng": 14.7577702
    }
  },
  "Vrigstad, Jönköping county, Sweden": {
    "formatted_address": "576 96 Vrigstad, Sweden",
    "location": {
      "lat": 57.3554934,
      "lng": 14.4756316
    }
  },
  "Norra Ljunga sn, Sävsjö, Jönköping county, Sweden": {
    "formatted_address": "576 91 Norra Ljunga, Sweden",
    "location": {
      "lat": 57.3759373,
      "lng": 14.5927748
    }
  },
  "Vrigstad sn, Jönköping county, Sweden": {
    "formatted_address": "576 96 Vrigstad, Sweden",
    "location": {
      "lat": 57.3554934,
      "lng": 14.4756316
    }
  },
  "Stockaryd sn, Jönköping county, Sweden": {
    "formatted_address": "576 94 Stockaryd, Sweden",
    "location": {
      "lat": 57.3196489,
      "lng": 14.5937415
    }
  },
  "Hjälmseryd sn, Jönköping county, Sweden": {
    "formatted_address": "576 93 Hjälmseryd, Sweden",
    "location": {
      "lat": 57.24385230000001,
      "lng": 14.5134695
    }
  },
  "Nydala sn, Jönköping county, Sweden": {
    "formatted_address": "576 97 Nydala, Sweden",
    "location": {
      "lat": 57.324138,
      "lng": 14.3329715
    }
  },
  "Vallsjö sn, Jönköping county, Sweden": {
    "formatted_address": "vallsjon, 576 91 Sävsjö, Sweden",
    "location": {
      "lat": 57.40166999999999,
      "lng": 14.78212
    }
  },
  "Vallsjö sn, Sävsjö, Jönköping county, Sweden": {
    "formatted_address": "vallsjon, 576 91 Sävsjö, Sweden",
    "location": {
      "lat": 57.40166999999999,
      "lng": 14.78212
    }
  },
  "Stockaryd, Jönköping county, Sweden": {
    "formatted_address": "576 94 Stockaryd, Sweden",
    "location": {
      "lat": 57.3196489,
      "lng": 14.5937415
    }
  },
  "Rydaholm sn, Jönköping county, Sweden": {
    "formatted_address": "331 76 Rydaholm, Sweden",
    "location": {
      "lat": 56.9861429,
      "lng": 14.3061766
    }
  },
  "Ramkvilla sn, Jönköping county, Sweden": {
    "formatted_address": "574 74 Ramkvilla, Sweden",
    "location": {
      "lat": 57.204722,
      "lng": 14.9515284
    }
  },
  "Södra Vedbo h.d., Jönköping county, Sweden": {
    "formatted_address": "Österlånggatan 17, 575 31 Eksjö, Sweden",
    "location": {
      "lat": 57.66799340000001,
      "lng": 14.9721376
    }
  },
  "Flisby sn, Jönköping county, Sweden": {
    "formatted_address": "578 75 Flisby, Sweden",
    "location": {
      "lat": 57.7832666,
      "lng": 14.8001215
    }
  },
  "Svegs socken, Jämtland county, Sweden": {
    "formatted_address": "Sveg, Sweden",
    "location": {
      "lat": 62.0346245,
      "lng": 14.3590366
    }
  },
  "Vemhåns socken, Jämtland county, Sweden": {
    "formatted_address": "846 93 Vemhån, Sweden",
    "location": {
      "lat": 62.3126783,
      "lng": 14.0377738
    }
  },
  "Linsäll, Jämtland county, Sweden": {
    "formatted_address": "Jamtland County, Sweden",
    "location": {
      "lat": 63.1711922,
      "lng": 14.95918
    }
  },
  "Glöte, Jämtland county, Sweden": {
    "formatted_address": "842 91 Glöte, Sweden",
    "location": {
      "lat": 62.10113399999999,
      "lng": 13.5254719
    }
  },
  "Älvros, Jämtland county, Sweden": {
    "formatted_address": "842 93 Älvros, Sweden",
    "location": {
      "lat": 62.0462401,
      "lng": 14.6550534
    }
  },
  "Smedjevallen, Jämtland county, Sweden": {
    "formatted_address": "Jamtland County, Sweden",
    "location": {
      "lat": 63.1711922,
      "lng": 14.95918
    }
  },
  "Ytterhogdal, Jämtland county, Sweden": {
    "formatted_address": "842 71 Ytterhogdal, Sweden",
    "location": {
      "lat": 62.17487999999999,
      "lng": 14.94114
    }
  },
  "Vänsjövallen, Ytterhogdal, Jämtland county, Sweden": {
    "formatted_address": "842 71 Ytterhogdal, Sweden",
    "location": {
      "lat": 62.17487999999999,
      "lng": 14.94114
    }
  },
  "Hede, Jämtland county, Sweden": {
    "formatted_address": "846 31 Hede, Sweden",
    "location": {
      "lat": 62.41899669999999,
      "lng": 13.489904
    }
  },
  "Sunnå, Jämtland county, Sweden": {
    "formatted_address": "Jamtland County, Sweden",
    "location": {
      "lat": 63.1711922,
      "lng": 14.95918
    }
  },
  "Håkansta, Jämtland county, Sweden": {
    "formatted_address": "845 91 Håkansta, Sweden",
    "location": {
      "lat": 63.1251384,
      "lng": 14.2932758
    }
  },
  "Strömsund, Jämtland county, Sweden": {
    "formatted_address": "Strömsund, Sweden",
    "location": {
      "lat": 63.85366209999999,
      "lng": 15.5568691
    }
  },
  "Asarne, Jämtland county, Sweden": {
    "formatted_address": "845 51 Åsarna, Sweden",
    "location": {
      "lat": 62.6443671,
      "lng": 14.3715816
    }
  },
  "Sandön, Jämtland county, Sweden": {
    "formatted_address": "Jamtland County, Sweden",
    "location": {
      "lat": 63.1711922,
      "lng": 14.95918
    }
  },
  "Råtan, Jämtland county, Sweden": {
    "formatted_address": "845 95 Rätan, Sweden",
    "location": {
      "lat": 62.47749589999999,
      "lng": 14.5432052
    }
  },
  "Storsjö, Jämtland county, Sweden": {
    "formatted_address": "845 98 Storsjö, Sweden",
    "location": {
      "lat": 62.8021837,
      "lng": 13.0580181
    }
  },
  "Rönnberg, Jämtland county, Sweden": {
    "formatted_address": "Jamtland County, Sweden",
    "location": {
      "lat": 63.1711922,
      "lng": 14.95918
    }
  },
  "Söderala, Gävleborg county, Sweden": {
    "formatted_address": "826 61 Söderala, Sweden",
    "location": {
      "lat": 61.28214730000001,
      "lng": 16.95946
    }
  },
  "Skog, Gävleborg county, Sweden": {
    "formatted_address": "826 69 Skog, Sweden",
    "location": {
      "lat": 61.16475990000001,
      "lng": 16.8215099
    }
  },
  "Skog och Ockelbo, Gävleborg county, Sweden": {
    "formatted_address": "Ockelbo, Sweden",
    "location": {
      "lat": 60.89178399999999,
      "lng": 16.7201873
    }
  },
  "Holmsveden, Gävleborg county, Sweden": {
    "formatted_address": "823 92 Holmsveden, Sweden",
    "location": {
      "lat": 61.1131277,
      "lng": 16.7279774
    }
  },
  "Hentaböle, Gävleborg county, Sweden": {
    "formatted_address": "Gavleborg County, Sweden",
    "location": {
      "lat": 61.4388743,
      "lng": 16.5940196
    }
  },
  "Lingbo, Gävleborg county, Sweden": {
    "formatted_address": "816 92 Lingbo, Sweden",
    "location": {
      "lat": 61.0459523,
      "lng": 16.6846282
    }
  },
  "Lingbo kapell, Gävleborg county, Sweden": {
    "formatted_address": "816 92 Lingbo, Sweden",
    "location": {
      "lat": 61.0459523,
      "lng": 16.6846282
    }
  },
  "Skog och Söderala, Gävleborg county, Sweden": {
    "formatted_address": "826 61 Söderala, Sweden",
    "location": {
      "lat": 61.28214730000001,
      "lng": 16.95946
    }
  },
  "Krafteleverans fr. nr 123 Ljusneverken, Gävleborg county, Sweden": {
    "formatted_address": "Gavleborg County, Sweden",
    "location": {
      "lat": 61.4388743,
      "lng": 16.5940196
    }
  },
  "Vallvik gas, Gävleborg county, Sweden": {
    "formatted_address": "826 79 Vallvik, Sweden",
    "location": {
      "lat": 61.1847212,
      "lng": 17.1791565
    }
  },
  "Haga, Gävleborg county, Sweden": {
    "formatted_address": "823 91 Hårga, Sweden",
    "location": {
      "lat": 61.2685663,
      "lng": 16.5554849
    }
  },
  "Sunnanå, Gävleborg county, Sweden": {
    "formatted_address": "826 68 Sunnanå, Sweden",
    "location": {
      "lat": 61.2519471,
      "lng": 16.863091
    }
  },
  "Myrkyje by, Gävleborg county, Sweden": {
    "formatted_address": "828 91 Gavleborg, Sweden",
    "location": {
      "lat": 61.51322,
      "lng": 15.53581
    }
  },
  "Sandarne, Gävleborg county, Sweden": {
    "formatted_address": "826 72 Sandarne, Sweden",
    "location": {
      "lat": 61.25998180000001,
      "lng": 17.1472249
    }
  },
  "Mo, Gävleborg county, Sweden": {
    "formatted_address": "826 93 Mo, Sweden",
    "location": {
      "lat": 61.3125699,
      "lng": 16.7807089
    }
  },
  "Myrkyje, Gävleborg county, Sweden": {
    "formatted_address": "Gavleborg County, Sweden",
    "location": {
      "lat": 61.4388743,
      "lng": 16.5940196
    }
  },
  "Myssjöke, Gävleborg county, Sweden": {
    "formatted_address": "Gavleborg County, Sweden",
    "location": {
      "lat": 61.4388743,
      "lng": 16.5940196
    }
  },
  "Norrala kraftstation, Gävleborg county, Sweden": {
    "formatted_address": "826 94 Norrala, Sweden",
    "location": {
      "lat": 61.36022569999999,
      "lng": 16.9859866
    }
  },
  "Håsjö och Måssjö kraftstationer, Gävleborg county, Sweden": {
    "formatted_address": "824 67 Hålsjo, Sweden",
    "location": {
      "lat": 61.8319553,
      "lng": 16.758497
    }
  },
  "Trönö, Gävleborg county, Sweden": {
    "formatted_address": "826 95 Trönö, Sweden",
    "location": {
      "lat": 61.39651219999999,
      "lng": 16.8336653
    }
  },
  "Skärså, Gävleborg county, Sweden": {
    "formatted_address": "826 91 Skärså, Sweden",
    "location": {
      "lat": 61.3795656,
      "lng": 17.1074288
    }
  },
  "Grönstens, Gävleborg county, Sweden": {
    "formatted_address": "Gavleborg County, Sweden",
    "location": {
      "lat": 61.4388743,
      "lng": 16.5940196
    }
  },
  "Grubbe, Gävleborg county, Sweden": {
    "formatted_address": "826 95 Grubbe, Sweden",
    "location": {
      "lat": 61.44417550000001,
      "lng": 16.7269689
    }
  },
  "Stugte, Gävleborg county, Sweden": {
    "formatted_address": "Gavleborg County, Sweden",
    "location": {
      "lat": 61.4388743,
      "lng": 16.5940196
    }
  },
  "Tygtsta, Gävleborg county, Sweden": {
    "formatted_address": "Gavleborg County, Sweden",
    "location": {
      "lat": 61.4388743,
      "lng": 16.5940196
    }
  },
  "Söderhamn, Gävleborg county, Sweden": {
    "formatted_address": "Söderhamn, Sweden",
    "location": {
      "lat": 61.3055762,
      "lng": 17.0628102
    }
  },
  "Enånger, Gävleborg county, Sweden": {
    "formatted_address": "825 95 Enånger, Sweden",
    "location": {
      "lat": 61.5475511,
      "lng": 17.00571
    }
  },
  "Boda, Gävleborg county, Sweden": {
    "formatted_address": "813 95 Bodås, Sweden",
    "location": {
      "lat": 60.4287313,
      "lng": 16.4485299
    }
  },
  "Långvind, Gävleborg county, Sweden": {
    "formatted_address": "Långvind, 825 96 Enånger, Sweden",
    "location": {
      "lat": 61.45907479999999,
      "lng": 17.1187999
    }
  },
  "Njutånger, Gävleborg county, Sweden": {
    "formatted_address": "825 92 Njutånger, Sweden",
    "location": {
      "lat": 61.6145874,
      "lng": 17.0497133
    }
  },
  "Forsa, Gävleborg county, Sweden": {
    "formatted_address": "824 62 Forsa, Sweden",
    "location": {
      "lat": 61.73374639999999,
      "lng": 16.9406352
    }
  },
  "Nianfors, Gävleborg county, Sweden": {
    "formatted_address": "825 93 Nianfors, Sweden",
    "location": {
      "lat": 61.6013184,
      "lng": 16.7661572
    }
  },
  "Idenor, Gävleborg county, Sweden": {
    "formatted_address": "824 40 Idenor, Sweden",
    "location": {
      "lat": 61.70117560000001,
      "lng": 17.1027191
    }
  },
  "Hudiksvall, Gävleborg county, Sweden": {
    "formatted_address": "Hudiksvall, Sweden",
    "location": {
      "lat": 61.7273909,
      "lng": 17.107401
    }
  },
  "Harmånger, Gävleborg county, Sweden": {
    "formatted_address": "829 95 Harmanger, Sweden",
    "location": {
      "lat": 61.9297564,
      "lng": 17.2173638
    }
  },
  "St. Kil, Värmland county, Sweden": {
    "formatted_address": "Kil, Sweden",
    "location": {
      "lat": 59.50368019999999,
      "lng": 13.3170477
    }
  },
  "Grava, Värmland county, Sweden": {
    "formatted_address": "686 95 Grava, Sweden",
    "location": {
      "lat": 59.6777441,
      "lng": 13.1791888
    }
  },
  "Forshaga, Värmland county, Sweden": {
    "formatted_address": "Forshaga, Sweden",
    "location": {
      "lat": 59.52976049999999,
      "lng": 13.4860836
    }
  },
  "Extrad, Värmland county, Sweden": {
    "formatted_address": "Varmland County, Sweden",
    "location": {
      "lat": 59.5807897,
      "lng": 12.8472974
    }
  },
  "Frykerud, Värmland county, Sweden": {
    "formatted_address": "Frykerud, 665 92 Kil, Sweden",
    "location": {
      "lat": 59.56472299999999,
      "lng": 13.167545
    }
  },
  "Nor, Värmland county, Sweden": {
    "formatted_address": "Varmland County, Sweden",
    "location": {
      "lat": 59.5807897,
      "lng": 12.8472974
    }
  },
  "Ed, Värmland county, Sweden": {
    "formatted_address": "672 95 Ed, Sweden",
    "location": {
      "lat": 59.26666700000001,
      "lng": 12.216667
    }
  },
  "Karlstad, Värmland county, Sweden": {
    "formatted_address": "Karlstad, Sweden",
    "location": {
      "lat": 59.4021806,
      "lng": 13.5114977
    }
  },
  "Hammarö, Värmland county, Sweden": {
    "formatted_address": "663 44 Hammaro, Sweden",
    "location": {
      "lat": 59.33333,
      "lng": 13.51667
    }
  },
  "Bogeruds elektriska anläggning, Värmland county, Sweden": {
    "formatted_address": "684 91 Bogerud, Sweden",
    "location": {
      "lat": 59.86666700000001,
      "lng": 13.55
    }
  },
  "Öv. Ullerud, Värmland county, Sweden": {
    "formatted_address": "669 91 Övre Ullerud, Sweden",
    "location": {
      "lat": 59.6869664,
      "lng": 13.4693797
    }
  },
  "Grava Hammaren, Värmland county, Sweden": {
    "formatted_address": "671 98 Gravås, Sweden",
    "location": {
      "lat": 59.7833882,
      "lng": 12.5534925
    }
  },
  "Skoghallsverken, Värmland county, Sweden": {
    "formatted_address": "Varmland County, Sweden",
    "location": {
      "lat": 59.5807897,
      "lng": 12.8472974
    }
  },
  "Do, Värmland county, Sweden": {
    "formatted_address": "Varmland County, Sweden",
    "location": {
      "lat": 59.5807897,
      "lng": 12.8472974
    }
  },
  "Grava Hammaran, Värmland county, Sweden": {
    "formatted_address": "671 98 Gravås, Sweden",
    "location": {
      "lat": 59.7833882,
      "lng": 12.5534925
    }
  },
  "Alster, Värmland county, Sweden": {
    "formatted_address": "656 39 Alster, Sweden",
    "location": {
      "lat": 59.4012898,
      "lng": 13.6138993
    }
  },
  "N. Råda, Värmland county, Sweden": {
    "formatted_address": "683 93 Råda, Sweden",
    "location": {
      "lat": 60.0044883,
      "lng": 13.5978744
    }
  },
  "Nordmark, Värmland county, Sweden": {
    "formatted_address": "682 93 Nordmark, Sweden",
    "location": {
      "lat": 59.8370595,
      "lng": 14.1211853
    }
  },
  "Älvsbacka, Värmland county, Sweden": {
    "formatted_address": "Älvsbacka, 655 98 Molkom, Sweden",
    "location": {
      "lat": 59.737922,
      "lng": 13.691556
    }
  },
  "Brattfors, Värmland county, Sweden": {
    "formatted_address": "682 91 Brattfors, Sweden",
    "location": {
      "lat": 59.6678933,
      "lng": 14.0261929
    }
  },
  "Nyed, Värmland county, Sweden": {
    "formatted_address": "Varmland County, Sweden",
    "location": {
      "lat": 59.5807897,
      "lng": 12.8472974
    }
  },
  "Foskerud, Värmland county, Sweden": {
    "formatted_address": "Varmland County, Sweden",
    "location": {
      "lat": 59.5807897,
      "lng": 12.8472974
    }
  },
  "Rudsberg, Värmland county, Sweden": {
    "formatted_address": "Rudsberg, 681 95 Kristinehamn, Sweden",
    "location": {
      "lat": 59.372639,
      "lng": 13.96758
    }
  },
  "Högboda, Värmland county, Sweden": {
    "formatted_address": "665 93 Högboda, Sweden",
    "location": {
      "lat": 59.5586459,
      "lng": 13.0540335
    }
  },
  "Lindsör gård, Värmland county, Sweden": {
    "formatted_address": "Varmland County, Sweden",
    "location": {
      "lat": 59.5807897,
      "lng": 12.8472974
    }
  },
  "Töcksfors belysningsförening, Värmland county, Sweden": {
    "formatted_address": "672 41 Töcksfors, Sweden",
    "location": {
      "lat": 59.5075308,
      "lng": 11.8425511
    }
  },
  "Hulleby, Värmland county, Sweden": {
    "formatted_address": "Varmland County, Sweden",
    "location": {
      "lat": 59.5807897,
      "lng": 12.8472974
    }
  },
  "Roglunda, Värmland county, Sweden": {
    "formatted_address": "Varmland County, Sweden",
    "location": {
      "lat": 59.5807897,
      "lng": 12.8472974
    }
  },
  "Olara bruk, Värmland county, Sweden": {
    "formatted_address": "Varmland County, Sweden",
    "location": {
      "lat": 59.5807897,
      "lng": 12.8472974
    }
  },
  "Munkefors bruk, Värmland county, Sweden": {
    "formatted_address": "Varmland County, Sweden",
    "location": {
      "lat": 59.5807897,
      "lng": 12.8472974
    }
  },
  "Mölnlycke, Halland county, Sweden": {
    "formatted_address": "Halland County, Sweden",
    "location": {
      "lat": 56.7957699,
      "lng": 12.893493
    }
  },
  "Lindome, Halland county, Sweden": {
    "formatted_address": "Lindome, Sweden",
    "location": {
      "lat": 57.5948712,
      "lng": 12.1354944
    }
  },
  "Lidköping, Halland county, Sweden": {
    "formatted_address": "Halland County, Sweden",
    "location": {
      "lat": 56.7957699,
      "lng": 12.893493
    }
  },
  "Hälsö, Halland county, Sweden": {
    "formatted_address": "Skyttevägen 32, 302 44 Halmstad, Sweden",
    "location": {
      "lat": 56.679573,
      "lng": 12.8839616
    }
  },
  "Släp, Halland county, Sweden": {
    "formatted_address": "Halland County, Sweden",
    "location": {
      "lat": 56.7957699,
      "lng": 12.893493
    }
  },
  "Kungsbacka, Halland county, Sweden": {
    "formatted_address": "Kungsbacka, Sweden",
    "location": {
      "lat": 57.48749189999999,
      "lng": 12.0761927
    }
  },
  "Älvsäker, Halland county, Sweden": {
    "formatted_address": "434 96 Älvsåker, Sweden",
    "location": {
      "lat": 57.54232500000001,
      "lng": 12.1168244
    }
  },
  "Grytna, Kopparberg county, Sweden": {
    "formatted_address": "Dalarna County, Sweden",
    "location": {
      "lat": 61.0917012,
      "lng": 14.6663653
    }
  },
  "Ab., Kopparberg county, Sweden": {
    "formatted_address": "Dalarna County, Sweden",
    "location": {
      "lat": 61.0917012,
      "lng": 14.6663653
    }
  },
  ", Kopparberg county, Sweden": {
    "formatted_address": "Dalarna County, Sweden",
    "location": {
      "lat": 61.0917012,
      "lng": 14.6663653
    }
  },
  "Avesta Storfors, Kopparberg county, Sweden": {
    "formatted_address": "Avesta, Sweden",
    "location": {
      "lat": 60.14532999999999,
      "lng": 16.1738399
    }
  },
  "Avesta, Kopparberg county, Sweden": {
    "formatted_address": "Avesta, Sweden",
    "location": {
      "lat": 60.14532999999999,
      "lng": 16.1738399
    }
  },
  "Lillfors, Kopparberg county, Sweden": {
    "formatted_address": "Dalarna County, Sweden",
    "location": {
      "lat": 61.0917012,
      "lng": 14.6663653
    }
  },
  "Brovallens El. Distr.-För., Kopparberg county, Sweden": {
    "formatted_address": "Dalarna County, Sweden",
    "location": {
      "lat": 61.0917012,
      "lng": 14.6663653
    }
  },
  "Nybyn, Kopparberg county, Sweden": {
    "formatted_address": "774 35 Nybyn, Sweden",
    "location": {
      "lat": 60.1426105,
      "lng": 16.1427623
    }
  },
  "Ab. fr. nr 132, Kopparberg county, Sweden": {
    "formatted_address": "Dalarna County, Sweden",
    "location": {
      "lat": 61.0917012,
      "lng": 14.6663653
    }
  },
  "Folkärna, Kopparberg county, Sweden": {
    "formatted_address": "775 95 Lund, Sweden",
    "location": {
      "lat": 60.1529287,
      "lng": 16.3133082
    }
  },
  "By, Kopparberg county, Sweden": {
    "formatted_address": "Dalarna County, Sweden",
    "location": {
      "lat": 61.0917012,
      "lng": 14.6663653
    }
  },
  "Leksand, Kopparberg county, Sweden": {
    "formatted_address": "Leksand, Sweden",
    "location": {
      "lat": 60.7303082,
      "lng": 14.9998922
    }
  },
  "Arhytan, Kopparberg county, Sweden": {
    "formatted_address": "Dalarna County, Sweden",
    "location": {
      "lat": 61.0917012,
      "lng": 14.6663653
    }
  },
  "Husby, Kopparberg county, Sweden": {
    "formatted_address": "776 97 Husby, Sweden",
    "location": {
      "lat": 60.38876889999999,
      "lng": 15.9994302
    }
  },
  "Stjärnsund, Kopparberg county, Sweden": {
    "formatted_address": "776 74 Stjärnsund, Sweden",
    "location": {
      "lat": 60.4333012,
      "lng": 16.2117374
    }
  },
  "Långshyttan, Kopparberg county, Sweden": {
    "formatted_address": "Långshyttan, Sweden",
    "location": {
      "lat": 60.4522805,
      "lng": 16.0330768
    }
  },
  "Stjernsund, Kopparberg county, Sweden": {
    "formatted_address": "776 74 Stjärnsund, Sweden",
    "location": {
      "lat": 60.4333012,
      "lng": 16.2117374
    }
  },
  "Kloster, Kopparberg county, Sweden": {
    "formatted_address": "776 98 Kloster, Sweden",
    "location": {
      "lat": 60.37010249999999,
      "lng": 16.1674024
    }
  },
  "Husby o Garpenberg, Kopparberg county, Sweden": {
    "formatted_address": "776 98 Garpenberg, Sweden",
    "location": {
      "lat": 60.3130086,
      "lng": 16.1880406
    }
  },
  "Hedemora, Kopparberg county, Sweden": {
    "formatted_address": "Hedemora, Sweden",
    "location": {
      "lat": 60.2775453,
      "lng": 15.985892
    }
  },
  "Hofs, Kopparberg county, Sweden": {
    "formatted_address": "Dalarna County, Sweden",
    "location": {
      "lat": 61.0917012,
      "lng": 14.6663653
    }
  },
  "Hofors, Kopparberg county, Sweden": {
    "formatted_address": "Hofors, Sweden",
    "location": {
      "lat": 60.544958,
      "lng": 16.2700612
    }
  },
  "Vikmanshyttan, Kopparberg county, Sweden": {
    "formatted_address": "776 70 Vikmanshyttan, Sweden",
    "location": {
      "lat": 60.29772490000001,
      "lng": 15.826766
    }
  },
  "Kvarnbacken, Kopparberg county, Sweden": {
    "formatted_address": "Dalarna County, Sweden",
    "location": {
      "lat": 61.0917012,
      "lng": 14.6663653
    }
  },
  "Borbo, Kopparberg county, Sweden": {
    "formatted_address": "Dalarna County, Sweden",
    "location": {
      "lat": 61.0917012,
      "lng": 14.6663653
    }
  },
  "Nornhyttan, Kopparberg county, Sweden": {
    "formatted_address": "Dalarna County, Sweden",
    "location": {
      "lat": 61.0917012,
      "lng": 14.6663653
    }
  },
  "Garpenberg, Kopparberg county, Sweden": {
    "formatted_address": "776 98 Garpenberg, Sweden",
    "location": {
      "lat": 60.3130086,
      "lng": 16.1880406
    }
  },
  "Grufvan, Kopparberg county, Sweden": {
    "formatted_address": "Dalarna County, Sweden",
    "location": {
      "lat": 61.0917012,
      "lng": 14.6663653
    }
  },
  "Holmgruvan, Kopparberg county, Sweden": {
    "formatted_address": "Dalarna County, Sweden",
    "location": {
      "lat": 61.0917012,
      "lng": 14.6663653
    }
  },
  "Garpenberg El-verk, Kopparberg county, Sweden": {
    "formatted_address": "776 98 Garpenberg, Sweden",
    "location": {
      "lat": 60.3130086,
      "lng": 16.1880406
    }
  },
  "Ans Less, Kopparberg county, Sweden": {
    "formatted_address": "Dalarna County, Sweden",
    "location": {
      "lat": 61.0917012,
      "lng": 14.6663653
    }
  },
  "Buskas, Kopparberg county, Sweden": {
    "formatted_address": "774 98 Buska, Sweden",
    "location": {
      "lat": 60.24287459999999,
      "lng": 16.4519658
    }
  },
  "Grytnis, Kopparberg county, Sweden": {
    "formatted_address": "Dalarna County, Sweden",
    "location": {
      "lat": 61.0917012,
      "lng": 14.6663653
    }
  },
  "Gränna, Jönköping county, Sweden": {
    "formatted_address": "563 32 Gränna, Sweden",
    "location": {
      "lat": 58.02502339999999,
      "lng": 14.4700948
    }
  },
  "Jönköping, Jönköping county, Sweden": {
    "formatted_address": "Jönköping, Sweden",
    "location": {
      "lat": 57.78261370000001,
      "lng": 14.1617876
    }
  },
  "Brötjemark, Jönköping county, Sweden": {
    "formatted_address": "563 93 Brötjemark, Sweden",
    "location": {
      "lat": 57.9301116,
      "lng": 14.4121477
    }
  },
  "Lyckås Gård, Jönköping county, Sweden": {
    "formatted_address": "Jonkoping County, Sweden",
    "location": {
      "lat": 57.3708434,
      "lng": 14.3439173
    }
  },
  "Tranås, Jönköping county, Sweden": {
    "formatted_address": "Tranås, Sweden",
    "location": {
      "lat": 58.035518,
      "lng": 14.975696
    }
  },
  "Vånga, Östergötland county, Sweden": {
    "formatted_address": "617 90 Vånga, Sweden",
    "location": {
      "lat": 58.5794043,
      "lng": 15.8113046
    }
  },
  "Kullerstad, Östergötland county, Sweden": {
    "formatted_address": "617 30 Kullerstad, Sweden",
    "location": {
      "lat": 58.58145769999999,
      "lng": 15.9420345
    }
  },
  "Skärblacka, Östergötland county, Sweden": {
    "formatted_address": "Skärblacka, Sweden",
    "location": {
      "lat": 58.5810488,
      "lng": 15.9142731
    }
  },
  "Norrköping, Östergötland county, Sweden": {
    "formatted_address": "Norrköping, Sweden",
    "location": {
      "lat": 58.587745,
      "lng": 16.192421
    }
  },
  "Dagsberg, Östergötland county, Sweden": {
    "formatted_address": "605 91 Dagsberg, Sweden",
    "location": {
      "lat": 58.583321,
      "lng": 16.314692
    }
  },
  "Kuddby, Östergötland county, Sweden": {
    "formatted_address": "610 33 Kuddby, Sweden",
    "location": {
      "lat": 58.530193,
      "lng": 16.474411
    }
  },
  "Jonsberg, Östergötland county, Sweden": {
    "formatted_address": "610 25 Jonsberg, Sweden",
    "location": {
      "lat": 58.52452479999999,
      "lng": 16.8285629
    }
  },
  "Furingstad, Östergötland county, Sweden": {
    "formatted_address": "605 93 Furingstad, Sweden",
    "location": {
      "lat": 58.55548679999999,
      "lng": 16.3454948
    }
  },
  "Östra Stenby, Östergötland county, Sweden": {
    "formatted_address": "610 31 Östra Stenby, Sweden",
    "location": {
      "lat": 58.5830007,
      "lng": 16.4759936
    }
  },
  "Östra Husby, Östergötland county, Sweden": {
    "formatted_address": "610 24 Östra Husby, Sweden",
    "location": {
      "lat": 58.5787358,
      "lng": 16.5608478
    }
  },
  "Östra XY, Östergötland county, Sweden": {
    "formatted_address": "Östergötland County, Sweden",
    "location": {
      "lat": 58.3453635,
      "lng": 15.5197843
    }
  },
  "Vikbolandet, Östergötland county, Sweden": {
    "formatted_address": "Vikbolandet, 610 29 Vikbolandet, Sweden",
    "location": {
      "lat": 58.5333333,
      "lng": 16.6666667
    }
  },
  "Valdemarsvik, Östergötland county, Sweden": {
    "formatted_address": "Valdemarsvik, Sweden",
    "location": {
      "lat": 58.20245139999999,
      "lng": 16.6013626
    }
  },
  "Ringarum, Östergötland county, Sweden": {
    "formatted_address": "615 74 Ringarum, Sweden",
    "location": {
      "lat": 58.3327141,
      "lng": 16.4462982
    }
  },
  "Skönberga, Söderköping, Östergötland county, Sweden": {
    "formatted_address": "Skönberga, 614 93 Söderköping, Sweden",
    "location": {
      "lat": 58.4409675,
      "lng": 16.3862964
    }
  },
  "Drothem, Söderköping, Östergötland county, Sweden": {
    "formatted_address": "Drothemsgatan 8, 614 34 Söderköping, Sweden",
    "location": {
      "lat": 58.48086049999999,
      "lng": 16.315855
    }
  },
  "Östra Ryd, Atvid, Östergötland county, Sweden": {
    "formatted_address": "614 96 Östra Ryd, Sweden",
    "location": {
      "lat": 58.4052802,
      "lng": 16.1649747
    }
  },
  "Söderköping, Östergötland county, Sweden": {
    "formatted_address": "Söderköping, Sweden",
    "location": {
      "lat": 58.4759013,
      "lng": 16.3234307
    }
  },
  "Kimstad, Skärkind, Gårdeby, Östergötland county, Sweden": {
    "formatted_address": "Kimstad, Sweden",
    "location": {
      "lat": 58.5505888,
      "lng": 15.9622759
    }
  },
  "Bankekind, Östergötland county, Sweden": {
    "formatted_address": "585 93 Bankekind, Sweden",
    "location": {
      "lat": 58.374747,
      "lng": 15.8254772
    }
  },
  "Kind, Östergötland county, Sweden": {
    "formatted_address": "Östergötland County, Sweden",
    "location": {
      "lat": 58.3453635,
      "lng": 15.5197843
    }
  },
  "Sturefors, Östergötland county, Sweden": {
    "formatted_address": "589 61 Sturefors, Sweden",
    "location": {
      "lat": 58.33005929999999,
      "lng": 15.7257118
    }
  },
  "Linköping, Östergötland county, Sweden": {
    "formatted_address": "Linköping, Sweden",
    "location": {
      "lat": 58.41080700000001,
      "lng": 15.6213727
    }
  },
  "Linkoping, Östergötland county, Sweden": {
    "formatted_address": "Linköping, Sweden",
    "location": {
      "lat": 58.41080700000001,
      "lng": 15.6213727
    }
  },
  "Tierp, Östergötland county, Sweden": {
    "formatted_address": "Östergötland County, Sweden",
    "location": {
      "lat": 58.3453635,
      "lng": 15.5197843
    }
  },
  "Nykarra, Östergötland county, Sweden": {
    "formatted_address": "Östergötland County, Sweden",
    "location": {
      "lat": 58.3453635,
      "lng": 15.5197843
    }
  },
  "Skedevi, Östergötland county, Sweden": {
    "formatted_address": "643 94 Skedevi, Sweden",
    "location": {
      "lat": 58.93801389999999,
      "lng": 15.8822757
    }
  },
  "Risinge, Östergötland county, Sweden": {
    "formatted_address": "612 92 Risinge, Sweden",
    "location": {
      "lat": 58.7024492,
      "lng": 15.8448957
    }
  },
  "Finspång, Östergötland county, Sweden": {
    "formatted_address": "Finspång, Sweden",
    "location": {
      "lat": 58.7074884,
      "lng": 15.773595
    }
  },
  "Hällestad, Östergötland county, Sweden": {
    "formatted_address": "612 75 Hällestad, Sweden",
    "location": {
      "lat": 58.7441245,
      "lng": 15.5725347
    }
  },
  "Borg, Östergötland county, Sweden": {
    "formatted_address": "605 97 Borg, Sweden",
    "location": {
      "lat": 58.566667,
      "lng": 16.083333
    }
  },
  "Fiskeby, Östergötland county, Sweden": {
    "formatted_address": "Fiskeby, Norrköping, Sweden",
    "location": {
      "lat": 58.5983622,
      "lng": 16.0998259
    }
  },
  "Krokek, Östergötland county, Sweden": {
    "formatted_address": "Krokek, Sweden",
    "location": {
      "lat": 58.6756076,
      "lng": 16.3701089
    }
  },
  "Dagsberg, Styrestad, Östergötland county, Sweden": {
    "formatted_address": "605 92 Styrstad, Sweden",
    "location": {
      "lat": 58.5618664,
      "lng": 16.2727592
    }
  },
  "Östra Eneby, Kvillinge, Östergötland county, Sweden": {
    "formatted_address": "616 34 Kvillinge, Sweden",
    "location": {
      "lat": 58.64810499999999,
      "lng": 16.1332491
    }
  },
  "Eneby, Östergötland county, Sweden": {
    "formatted_address": "590 42 Eneby, Sweden",
    "location": {
      "lat": 57.91597939999999,
      "lng": 15.8852372
    }
  },
  "Kvillinge, Östergötland county, Sweden": {
    "formatted_address": "616 34 Kvillinge, Sweden",
    "location": {
      "lat": 58.64810499999999,
      "lng": 16.1332491
    }
  },
  "Hults Bruk, Östergötland county, Sweden": {
    "formatted_address": "Hultsbruk, 616 90 Åby, Sweden",
    "location": {
      "lat": 58.67365900000001,
      "lng": 16.128747
    }
  },
  "Ljusfors, Östergötland county, Sweden": {
    "formatted_address": "617 31 Ljusfors, Sweden",
    "location": {
      "lat": 58.583333,
      "lng": 15.883333
    }
  },
  "Vång, Östergötland county, Sweden": {
    "formatted_address": "617 90 Vånga, Sweden",
    "location": {
      "lat": 58.5794043,
      "lng": 15.8113046
    }
  },
  "Sollentuna, Stockholm county, Sweden": {
    "formatted_address": "Sollentuna, Sweden",
    "location": {
      "lat": 59.43049730000001,
      "lng": 17.950916
    }
  },
  "Fresta, Stockholm county, Sweden": {
    "formatted_address": "194 54 Fresta, Sweden",
    "location": {
      "lat": 59.5182064,
      "lng": 17.9566062
    }
  },
  "Eds socken, Stockholm county, Sweden": {
    "formatted_address": "Stockholm County, Sweden",
    "location": {
      "lat": 59.4069048,
      "lng": 18.8230665
    }
  },
  "Ed, Stockholm county, Sweden": {
    "formatted_address": "Stockholm County, Sweden",
    "location": {
      "lat": 59.4069048,
      "lng": 18.8230665
    }
  },
  "Bergvik, Stockholm county, Sweden": {
    "formatted_address": "178 90 Bergvik, Sweden",
    "location": {
      "lat": 59.30046309999999,
      "lng": 17.6732583
    }
  },
  "N. Skeie, Stockholm county, Sweden": {
    "formatted_address": "Stockholm County, Sweden",
    "location": {
      "lat": 59.4069048,
      "lng": 18.8230665
    }
  },
  "Solna, Stockholm county, Sweden": {
    "formatted_address": "Solna, Sweden",
    "location": {
      "lat": 59.36887909999999,
      "lng": 18.0084334
    }
  },
  "Stockholm, Stockholm county, Sweden": {
    "formatted_address": "Stockholm, Sweden",
    "location": {
      "lat": 59.3327036,
      "lng": 18.0656255
    }
  },
  "Sundbyberg, Stockholm county, Sweden": {
    "formatted_address": "Sundbyberg, Sweden",
    "location": {
      "lat": 59.369325,
      "lng": 17.9609133
    }
  },
  "Uppsala, Stockholm county, Sweden": {
    "formatted_address": "Stockholm County, Sweden",
    "location": {
      "lat": 59.4069048,
      "lng": 18.8230665
    }
  },
  "Danderyd, Stockholm county, Sweden": {
    "formatted_address": "182 54 Danderyd, Sweden",
    "location": {
      "lat": 59.40131,
      "lng": 18.04851
    }
  },
  "Djursholm, Stockholm county, Sweden": {
    "formatted_address": "Djursholm, Sweden",
    "location": {
      "lat": 59.39707249999999,
      "lng": 18.0903005
    }
  },
  "Söderby-Karl, Stockholm county, Sweden": {
    "formatted_address": "761 74 Söderby-Karl, Sweden",
    "location": {
      "lat": 59.8863685,
      "lng": 18.7008249
    }
  },
  "Roslagsbro, Stockholm county, Sweden": {
    "formatted_address": "Stockholm County, Sweden",
    "location": {
      "lat": 59.4069048,
      "lng": 18.8230665
    }
  },
  "Vätö, Stockholm county, Sweden": {
    "formatted_address": "760 21 Vätö, Sweden",
    "location": {
      "lat": 59.816667,
      "lng": 18.916667
    }
  },
  "Estuna och Söderby-Karl, Stockholm county, Sweden": {
    "formatted_address": "761 73 Estuna, Sweden",
    "location": {
      "lat": 59.818662,
      "lng": 18.6512733
    }
  },
  "Norrtälje, Stockholm county, Sweden": {
    "formatted_address": "Norrtälje, Sweden",
    "location": {
      "lat": 59.7595841,
      "lng": 18.7013584
    }
  },
  "Frötuna, Stockholm county, Sweden": {
    "formatted_address": "Stockholm County, Sweden",
    "location": {
      "lat": 59.4069048,
      "lng": 18.8230665
    }
  },
  "Lohärad, Stockholm county, Sweden": {
    "formatted_address": "Södra Lohärad, 761 71 Norrtälje, Sweden",
    "location": {
      "lat": 59.775658,
      "lng": 18.602585
    }
  },
  "Ununge, Stockholm county, Sweden": {
    "formatted_address": "762 98 Ununge, Sweden",
    "location": {
      "lat": 59.9285987,
      "lng": 18.5891402
    }
  },
  "Rimbo, Stockholm county, Sweden": {
    "formatted_address": "Rimbo, Sweden",
    "location": {
      "lat": 59.7436995,
      "lng": 18.3601496
    }
  },
  "Fasterna, Stockholm county, Sweden": {
    "formatted_address": "Fasterna kyrkväg 12, 762 96 Rånäs, Sweden",
    "location": {
      "lat": 59.76967579999999,
      "lng": 18.2408417
    }
  },
  "Almunge, Stockholm county, Sweden": {
    "formatted_address": "Stockholm County, Sweden",
    "location": {
      "lat": 59.4069048,
      "lng": 18.8230665
    }
  },
  "Husby-Långhundra, Stockholm county, Sweden": {
    "formatted_address": "Husby, Stockholm, Sweden",
    "location": {
      "lat": 59.40969579999999,
      "lng": 17.9284919
    }
  },
  "Gottröra, Stockholm county, Sweden": {
    "formatted_address": "762 95 Gottröra, Sweden",
    "location": {
      "lat": 59.739118,
      "lng": 18.1609381
    }
  },
  "Knivsta, Stockholm county, Sweden": {
    "formatted_address": "Knivsta, Sweden",
    "location": {
      "lat": 59.75847599999999,
      "lng": 17.879962
    }
  },
  "Alsike, Stockholm county, Sweden": {
    "formatted_address": "Stockholm County, Sweden",
    "location": {
      "lat": 59.4069048,
      "lng": 18.8230665
    }
  },
  "Odensala, Stockholm county, Sweden": {
    "formatted_address": "195 92 Odensala, Sweden",
    "location": {
      "lat": 59.6651476,
      "lng": 17.8483742
    }
  },
  "Husby-Ärlinghundra, Stockholm county, Sweden": {
    "formatted_address": "Husby Kyrkby 131, 195 91 Märsta, Sweden",
    "location": {
      "lat": 59.6401495,
      "lng": 17.882201
    }
  },
  "Sigtuna, Stockholm county, Sweden": {
    "formatted_address": "Sigtuna, Sweden",
    "location": {
      "lat": 59.6191463,
      "lng": 17.7234191
    }
  },
  "Sigtuna och St Olof, Stockholm county, Sweden": {
    "formatted_address": "Olofsgatan, 193 30 Sigtuna, Sweden",
    "location": {
      "lat": 59.6183521,
      "lng": 17.721196
    }
  },
  "St Olof, Stockholm county, Sweden": {
    "formatted_address": "Stockholm County, Sweden",
    "location": {
      "lat": 59.4069048,
      "lng": 18.8230665
    }
  },
  "Norrsunda, Stockholm county, Sweden": {
    "formatted_address": "130 38 Norrsunda, Sweden",
    "location": {
      "lat": 59.2725483,
      "lng": 18.7402627
    }
  },
  "Stömsund, Jämtland county, Sweden": {
    "formatted_address": "Strömsund, Sweden",
    "location": {
      "lat": 63.85366209999999,
      "lng": 15.5568691
    }
  },
  "Hällsund, Jämtland county, Sweden": {
    "formatted_address": "Jamtland County, Sweden",
    "location": {
      "lat": 63.1711922,
      "lng": 14.95918
    }
  },
  "Svänged, Jämtland county, Sweden": {
    "formatted_address": "Jamtland County, Sweden",
    "location": {
      "lat": 63.1711922,
      "lng": 14.95918
    }
  },
  "Gävdraftnet, Jämtland county, Sweden": {
    "formatted_address": "Jamtland County, Sweden",
    "location": {
      "lat": 63.1711922,
      "lng": 14.95918
    }
  },
  "Slåjeåsen, Jämtland county, Sweden": {
    "formatted_address": "Jamtland County, Sweden",
    "location": {
      "lat": 63.1711922,
      "lng": 14.95918
    }
  },
  "Frostviken, Jämtland county, Sweden": {
    "formatted_address": "Kvarnbergsvattnet, 833 98 Gäddede, Sweden",
    "location": {
      "lat": 64.6,
      "lng": 13.8833333
    }
  },
  "Bågede, Jämtland county, Sweden": {
    "formatted_address": "Jamtland County, Sweden",
    "location": {
      "lat": 63.1711922,
      "lng": 14.95918
    }
  },
  "Edet, Jämtland county, Sweden": {
    "formatted_address": "835 96 Ede, Sweden",
    "location": {
      "lat": 63.3612956,
      "lng": 13.9651175
    }
  },
  "Järpen, Jämtland county, Sweden": {
    "formatted_address": "Järpen, Sweden",
    "location": {
      "lat": 63.34963049999999,
      "lng": 13.4529077
    }
  },
  "Kyrannfallet, Jämtland county, Sweden": {
    "formatted_address": "Jamtland County, Sweden",
    "location": {
      "lat": 63.1711922,
      "lng": 14.95918
    }
  },
  "Undersåker, Jämtland county, Sweden": {
    "formatted_address": "837 95 Undersåker, Sweden",
    "location": {
      "lat": 63.31415089999999,
      "lng": 13.2528978
    }
  },
  "Ängeforssarna, Jämtland county, Sweden": {
    "formatted_address": "Jamtland County, Sweden",
    "location": {
      "lat": 63.1711922,
      "lng": 14.95918
    }
  },
  "Östersund, Jämtland county, Sweden": {
    "formatted_address": "Östersund, Sweden",
    "location": {
      "lat": 63.1766832,
      "lng": 14.6360681
    }
  },
  "Mörsil, Jämtland county, Sweden": {
    "formatted_address": "837 41 Mörsil, Sweden",
    "location": {
      "lat": 63.30797519999999,
      "lng": 13.663175
    }
  },
  "Nordhallen, Jämtland county, Sweden": {
    "formatted_address": "837 72 Nordhallen, Sweden",
    "location": {
      "lat": 63.46580999999999,
      "lng": 12.8137741
    }
  },
  "Hammerdal, Jämtland county, Sweden": {
    "formatted_address": "833 41 Hammerdal, Sweden",
    "location": {
      "lat": 63.5915718,
      "lng": 15.3550589
    }
  },
  "Handalag, Jämtland county, Sweden": {
    "formatted_address": "Jamtland County, Sweden",
    "location": {
      "lat": 63.1711922,
      "lng": 14.95918
    }
  },
  "Åre, Jämtland county, Sweden": {
    "formatted_address": "Åre, Sweden",
    "location": {
      "lat": 63.3990428,
      "lng": 13.0815059
    }
  },
  "Älsön, Jämtland county, Sweden": {
    "formatted_address": "Jamtland County, Sweden",
    "location": {
      "lat": 63.1711922,
      "lng": 14.95918
    }
  },
  "Gärde, Jämtland county, Sweden": {
    "formatted_address": "835 98 Gärde, Sweden",
    "location": {
      "lat": 63.56629389999999,
      "lng": 13.7765508
    }
  },
  "Krus., Jämtland county, Sweden": {
    "formatted_address": "Jamtland County, Sweden",
    "location": {
      "lat": 63.1711922,
      "lng": 14.95918
    }
  },
  "Älssøn, Jämtland county, Sweden": {
    "formatted_address": "Jamtland County, Sweden",
    "location": {
      "lat": 63.1711922,
      "lng": 14.95918
    }
  },
  "Kaxås, Jämtland county, Sweden": {
    "formatted_address": "835 97 Kaxås, Sweden",
    "location": {
      "lat": 63.49488470000001,
      "lng": 13.899765
    }
  },
  "Linsärz, Jämtland county, Sweden": {
    "formatted_address": "Jamtland County, Sweden",
    "location": {
      "lat": 63.1711922,
      "lng": 14.95918
    }
  },
  "Kavåla, Jämtland county, Sweden": {
    "formatted_address": "Jamtland County, Sweden",
    "location": {
      "lat": 63.1711922,
      "lng": 14.95918
    }
  },
  "Offerdal, Jämtland county, Sweden": {
    "formatted_address": "835 97 Offerdal, Sweden",
    "location": {
      "lat": 63.4666113,
      "lng": 14.0109874
    }
  },
  "Hissmest, Jämtland county, Sweden": {
    "formatted_address": "Jamtland County, Sweden",
    "location": {
      "lat": 63.1711922,
      "lng": 14.95918
    }
  },
  "Kuks, Jämtland county, Sweden": {
    "formatted_address": "Jamtland County, Sweden",
    "location": {
      "lat": 63.1711922,
      "lng": 14.95918
    }
  },
  "Mjölme, Jämtland county, Sweden": {
    "formatted_address": "Jamtland County, Sweden",
    "location": {
      "lat": 63.1711922,
      "lng": 14.95918
    }
  },
  "Åsarna, Jämtland county, Sweden": {
    "formatted_address": "845 51 Åsarna, Sweden",
    "location": {
      "lat": 62.6443671,
      "lng": 14.3715816
    }
  },
  "Storsjön, Jämtland county, Sweden": {
    "formatted_address": "Storsjön, Sweden",
    "location": {
      "lat": 63.2148443,
      "lng": 14.3145267
    }
  },
  "Åredsbina, Jämtland county, Sweden": {
    "formatted_address": "Jamtland County, Sweden",
    "location": {
      "lat": 63.1711922,
      "lng": 14.95918
    }
  },
  "Söråker, Jämtland county, Sweden": {
    "formatted_address": "Jamtland County, Sweden",
    "location": {
      "lat": 63.1711922,
      "lng": 14.95918
    }
  },
  "Mysjö, Jämtland county, Sweden": {
    "formatted_address": "Jamtland County, Sweden",
    "location": {
      "lat": 63.1711922,
      "lng": 14.95918
    }
  },
  "Vincr, Jämtland county, Sweden": {
    "formatted_address": "Jamtland County, Sweden",
    "location": {
      "lat": 63.1711922,
      "lng": 14.95918
    }
  },
  "Hovalen, Jämtland county, Sweden": {
    "formatted_address": "Jamtland County, Sweden",
    "location": {
      "lat": 63.1711922,
      "lng": 14.95918
    }
  },
  "Billsta, Jämtland county, Sweden": {
    "formatted_address": "845 94 Billsta, Sweden",
    "location": {
      "lat": 62.916667,
      "lng": 14.516667
    }
  },
  "Lilla, Jämtland county, Sweden": {
    "formatted_address": "Jamtland County, Sweden",
    "location": {
      "lat": 63.1711922,
      "lng": 14.95918
    }
  },
  "Gillhovs by, Jämtland county, Sweden": {
    "formatted_address": "845 61 Gillhov, Sweden",
    "location": {
      "lat": 62.66501179999999,
      "lng": 14.7496318
    }
  },
  "Lö, Kyrksjö, och Frösö, Jämtland county, Sweden": {
    "formatted_address": "832 96 Frösö, Sweden",
    "location": {
      "lat": 63.17919000000001,
      "lng": 14.55401
    }
  },
  "Hackås, Jämtland county, Sweden": {
    "formatted_address": "845 94 Hackås, Sweden",
    "location": {
      "lat": 62.92558229999999,
      "lng": 14.5160635
    }
  },
  "Lit, Rödön, Näskott o. Aspås, Jämtland county, Sweden": {
    "formatted_address": "836 31 Lit, Sweden",
    "location": {
      "lat": 63.3165273,
      "lng": 14.8454845
    }
  },
  "Häggenås, Jämtland county, Sweden": {
    "formatted_address": "836 93 Häggenås, Sweden",
    "location": {
      "lat": 63.3934041,
      "lng": 14.9062139
    }
  },
  "Högom, Jämtland county, Sweden": {
    "formatted_address": "Jamtland County, Sweden",
    "location": {
      "lat": 63.1711922,
      "lng": 14.95918
    }
  },
  "Häkan, Jämtland county, Sweden": {
    "formatted_address": "Jamtland County, Sweden",
    "location": {
      "lat": 63.1711922,
      "lng": 14.95918
    }
  },
  "Håksoren, Jämtland county, Sweden": {
    "formatted_address": "Jamtland County, Sweden",
    "location": {
      "lat": 63.1711922,
      "lng": 14.95918
    }
  },
  "Lillskärvången, Jämtland county, Sweden": {
    "formatted_address": "Lillskarvangen, 835 63 Föllinge, Sweden",
    "location": {
      "lat": 63.84999999999999,
      "lng": 14.3833333
    }
  },
  "Tennfors, Jämtland county, Sweden": {
    "formatted_address": "Jamtland County, Sweden",
    "location": {
      "lat": 63.1711922,
      "lng": 14.95918
    }
  },
  "Laxsjö, Jämtland county, Sweden": {
    "formatted_address": "835 62 Laxsjö, Sweden",
    "location": {
      "lat": 63.8137451,
      "lng": 14.8018187
    }
  },
  "Rättvik, Jämtland county, Sweden": {
    "formatted_address": "Jamtland County, Sweden",
    "location": {
      "lat": 63.1711922,
      "lng": 14.95918
    }
  },
  "Våljä, Jämtland county, Sweden": {
    "formatted_address": "Jamtland County, Sweden",
    "location": {
      "lat": 63.1711922,
      "lng": 14.95918
    }
  },
  "Hotagen, Jämtland county, Sweden": {
    "formatted_address": "835 63 Hotagen, Sweden",
    "location": {
      "lat": 63.98591399999999,
      "lng": 14.2241226
    }
  },
  "Högsjön, Jämtland county, Sweden": {
    "formatted_address": "Jamtland County, Sweden",
    "location": {
      "lat": 63.1711922,
      "lng": 14.95918
    }
  },
  "Hissmofors, Jämtland county, Sweden": {
    "formatted_address": "835 32 Hissmofors, Sweden",
    "location": {
      "lat": 63.333333,
      "lng": 14.466667
    }
  },
  "Rödö, Jämtland county, Sweden": {
    "formatted_address": "835 91 Rödön, Sweden",
    "location": {
      "lat": 63.24955489999999,
      "lng": 14.4196938
    }
  },
  "Rödö, Näskott, Jämtland county, Sweden": {
    "formatted_address": "835 91 Rödön, Sweden",
    "location": {
      "lat": 63.24955489999999,
      "lng": 14.4196938
    }
  },
  "Aspås, Jämtland county, Sweden": {
    "formatted_address": "835 94 Aspås, Sweden",
    "location": {
      "lat": 63.36671380000001,
      "lng": 14.4856758
    }
  },
  "Nälden, Jämtland county, Sweden": {
    "formatted_address": "835 40 Nälden, Sweden",
    "location": {
      "lat": 63.3491079,
      "lng": 14.2521057
    }
  },
  "Näskott, Jämtland county, Sweden": {
    "formatted_address": "835 40 Näskott, Sweden",
    "location": {
      "lat": 63.316667,
      "lng": 14.3
    }
  },
  "Ytterån, Jämtland county, Sweden": {
    "formatted_address": "835 95 Ytterån, Sweden",
    "location": {
      "lat": 63.317051,
      "lng": 14.171838
    }
  },
  "Ås, Jämtland county, Sweden": {
    "formatted_address": "836 72 Ås, Sweden",
    "location": {
      "lat": 63.24791649999999,
      "lng": 14.5632004
    }
  },
  "Hammerdal och Gösjö, Jämtland county, Sweden": {
    "formatted_address": "833 41 Hammerdal, Sweden",
    "location": {
      "lat": 63.5915718,
      "lng": 15.3550589
    }
  },
  "Svejde, Jämtland county, Sweden": {
    "formatted_address": "Jamtland County, Sweden",
    "location": {
      "lat": 63.1711922,
      "lng": 14.95918
    }
  },
  "Nyland, Jämtland county, Sweden": {
    "formatted_address": "833 49 Nyland, Sweden",
    "location": {
      "lat": 63.7,
      "lng": 15.15
    }
  },
  "Ström, Jämtland county, Sweden": {
    "formatted_address": "Jamtland County, Sweden",
    "location": {
      "lat": 63.1711922,
      "lng": 14.95918
    }
  },
  "Lövberga, Jämtland county, Sweden": {
    "formatted_address": "833 95 Lövberga, Sweden",
    "location": {
      "lat": 63.966405,
      "lng": 15.8529301
    }
  },
  "Alfta, Gävleborg county, Sweden": {
    "formatted_address": "822 30 Alfta, Sweden",
    "location": {
      "lat": 61.34444680000001,
      "lng": 16.0604207
    }
  },
  ", Gävleborg county, Sweden": {
    "formatted_address": "Gavleborg County, Sweden",
    "location": {
      "lat": 61.4388743,
      "lng": 16.5940196
    }
  },
  "Ovanåker, Gävleborg county, Sweden": {
    "formatted_address": "828 94 ovanaker, Sweden",
    "location": {
      "lat": 61.36662239999999,
      "lng": 15.8965623
    }
  },
  "Fulsbo, Gävleborg county, Sweden": {
    "formatted_address": "Gavleborg County, Sweden",
    "location": {
      "lat": 61.4388743,
      "lng": 16.5940196
    }
  },
  "Voxna, Gävleborg county, Sweden": {
    "formatted_address": "828 92 Voxna, Sweden",
    "location": {
      "lat": 61.3388953,
      "lng": 15.5692408
    }
  },
  "Bollnäs landskomm., Gävleborg county, Sweden": {
    "formatted_address": "Bollnäs, Sweden",
    "location": {
      "lat": 61.34837950000001,
      "lng": 16.3942685
    }
  },
  "Brodlägret, Gävleborg county, Sweden": {
    "formatted_address": "Gavleborg County, Sweden",
    "location": {
      "lat": 61.4388743,
      "lng": 16.5940196
    }
  },
  "Aspbock, Gävleborg county, Sweden": {
    "formatted_address": "Gavleborg County, Sweden",
    "location": {
      "lat": 61.4388743,
      "lng": 16.5940196
    }
  },
  "Bollnäs, Gävleborg county, Sweden": {
    "formatted_address": "Bollnäs, Sweden",
    "location": {
      "lat": 61.34837950000001,
      "lng": 16.3942685
    }
  },
  "Bollnäs köping, Gävleborg county, Sweden": {
    "formatted_address": "Bollnäs, Sweden",
    "location": {
      "lat": 61.34837950000001,
      "lng": 16.3942685
    }
  },
  "Segerts Haneho, Gävleborg county, Sweden": {
    "formatted_address": "823 91 Hanebo, Sweden",
    "location": {
      "lat": 61.24551280000001,
      "lng": 16.5549854
    }
  },
  "Bollnäs Hanebo, Gävleborg county, Sweden": {
    "formatted_address": "823 91 Hanebo, Sweden",
    "location": {
      "lat": 61.24551280000001,
      "lng": 16.5549854
    }
  },
  "Ockelbo, Gävleborg county, Sweden": {
    "formatted_address": "Ockelbo, Sweden",
    "location": {
      "lat": 60.89178399999999,
      "lng": 16.7201873
    }
  },
  "Källsjön, Gävleborg county, Sweden": {
    "formatted_address": "816 95 Källsjön, Sweden",
    "location": {
      "lat": 60.96346999999999,
      "lng": 16.26696
    }
  },
  "'Amot, Gävleborg county, Sweden": {
    "formatted_address": "816 95 Åmot, Sweden",
    "location": {
      "lat": 60.9668613,
      "lng": 16.4423112
    }
  },
  "Nordansjö, Gävleborg county, Sweden": {
    "formatted_address": "818 96 Nordansjö, Sweden",
    "location": {
      "lat": 60.46296959999999,
      "lng": 17.2516951
    }
  },
  "Sunnansjö, Gävleborg county, Sweden": {
    "formatted_address": "821 91 Sunnansjö, Sweden",
    "location": {
      "lat": 61.30556069999999,
      "lng": 16.3296543
    }
  },
  "Åkerby, Gävleborg county, Sweden": {
    "formatted_address": "816 94 Åkerby, Sweden",
    "location": {
      "lat": 60.89083050000001,
      "lng": 16.6888777
    }
  },
  "Gryvan, Gävleborg county, Sweden": {
    "formatted_address": "Gavleborg County, Sweden",
    "location": {
      "lat": 61.4388743,
      "lng": 16.5940196
    }
  },
  "Brattfors, Gävleborg county, Sweden": {
    "formatted_address": "816 90 Brattfors, Sweden",
    "location": {
      "lat": 60.84342770000001,
      "lng": 16.6666949
    }
  },
  "Järbo, Gävleborg county, Sweden": {
    "formatted_address": "811 70 Järbo, Sweden",
    "location": {
      "lat": 60.719455,
      "lng": 16.5909492
    }
  },
  "Stuguberget, Gävleborg county, Sweden": {
    "formatted_address": "Gavleborg County, Sweden",
    "location": {
      "lat": 61.4388743,
      "lng": 16.5940196
    }
  },
  "Kungsgberg, Gävleborg county, Sweden": {
    "formatted_address": "811 95 Kungsberg, Sweden",
    "location": {
      "lat": 60.76405370000001,
      "lng": 16.4632614
    }
  },
  "Finnäs, Gävleborg county, Sweden": {
    "formatted_address": "Gavleborg County, Sweden",
    "location": {
      "lat": 61.4388743,
      "lng": 16.5940196
    }
  },
  "Stocka, Gävleborg county, Sweden": {
    "formatted_address": "824 96 Stocka, Sweden",
    "location": {
      "lat": 61.89386930000001,
      "lng": 17.3308793
    }
  },
  "Järforsa, Gävleborg county, Sweden": {
    "formatted_address": "Gavleborg County, Sweden",
    "location": {
      "lat": 61.4388743,
      "lng": 16.5940196
    }
  },
  "Bro, Gävleborg county, Sweden": {
    "formatted_address": "824 94 Bro, Sweden",
    "location": {
      "lat": 61.816667,
      "lng": 17.216667
    }
  },
  "Torsåker, Gävleborg county, Sweden": {
    "formatted_address": "813 40 Torsåker, Sweden",
    "location": {
      "lat": 60.5105162,
      "lng": 16.4729298
    }
  },
  "Dömfallane, Gävleborg county, Sweden": {
    "formatted_address": "Gavleborg County, Sweden",
    "location": {
      "lat": 61.4388743,
      "lng": 16.5940196
    }
  },
  "Hofors A.-B., Gävleborg county, Sweden": {
    "formatted_address": "Hofors, Sweden",
    "location": {
      "lat": 60.54595,
      "lng": 16.2841
    }
  },
  "Hofors, Gävleborg county, Sweden": {
    "formatted_address": "Hofors, Sweden",
    "location": {
      "lat": 60.54595,
      "lng": 16.2841
    }
  },
  "Gesinge, Gävleborg county, Sweden": {
    "formatted_address": "Gavleborg County, Sweden",
    "location": {
      "lat": 61.4388743,
      "lng": 16.5940196
    }
  },
  "Gävlen, Gävleborg county, Sweden": {
    "formatted_address": "Gävle, Sweden",
    "location": {
      "lat": 60.6748796,
      "lng": 17.1412726
    }
  },
  "Balkåsttens, Gävleborg county, Sweden": {
    "formatted_address": "Gavleborg County, Sweden",
    "location": {
      "lat": 61.4388743,
      "lng": 16.5940196
    }
  },
  "Bons, Gävleborg county, Sweden": {
    "formatted_address": "Gavleborg County, Sweden",
    "location": {
      "lat": 61.4388743,
      "lng": 16.5940196
    }
  },
  "Långbo, Gävleborg county, Sweden": {
    "formatted_address": "823 92 Långbo, Sweden",
    "location": {
      "lat": 61.1018534,
      "lng": 16.7102034
    }
  },
  "Röste, Gävleborg county, Sweden": {
    "formatted_address": "821 94 Röste, Sweden",
    "location": {
      "lat": 61.3982149,
      "lng": 16.3753279
    }
  },
  "Gålsbo, Gävleborg county, Sweden": {
    "formatted_address": "Gavleborg County, Sweden",
    "location": {
      "lat": 61.4388743,
      "lng": 16.5940196
    }
  },
  "Lekvattnet, Värmland county, Sweden": {
    "formatted_address": "685 91 Lekvattned, Sweden",
    "location": {
      "lat": 60.1923584,
      "lng": 12.6695633
    }
  },
  "Grums, Värmland county, Sweden": {
    "formatted_address": "Grums, Sweden",
    "location": {
      "lat": 59.35317870000001,
      "lng": 13.1117319
    }
  },
  "Fryksände, Värmland county, Sweden": {
    "formatted_address": "Torsby Municipality, Sweden",
    "location": {
      "lat": 60.60933889999999,
      "lng": 12.9219628
    }
  },
  "Gräsmark, Värmland county, Sweden": {
    "formatted_address": "686 98 Gräsmark, Sweden",
    "location": {
      "lat": 59.93384759999999,
      "lng": 12.8389526
    }
  },
  "Koppom, Värmland county, Sweden": {
    "formatted_address": "673 37 Koppom, Sweden",
    "location": {
      "lat": 59.70056,
      "lng": 12.15812
    }
  },
  "Qvarnström & Person, Värmland county, Sweden": {
    "formatted_address": "Varmland County, Sweden",
    "location": {
      "lat": 59.5807897,
      "lng": 12.8472974
    }
  },
  "Lysvik, Värmland county, Sweden": {
    "formatted_address": "686 97 Lysvik, Sweden",
    "location": {
      "lat": 60.0149009,
      "lng": 13.132743
    }
  },
  "Råbäcks, Värmland county, Sweden": {
    "formatted_address": "Råbäck, 655 93 Karlstad, Sweden",
    "location": {
      "lat": 59.47052369999999,
      "lng": 13.5750135
    }
  },
  ", Värmland county, Sweden": {
    "formatted_address": "Varmland County, Sweden",
    "location": {
      "lat": 59.5807897,
      "lng": 12.8472974
    }
  },
  "Sunne, Värmland county, Sweden": {
    "formatted_address": "Sunne, Sweden",
    "location": {
      "lat": 59.83655749999999,
      "lng": 13.1440464
    }
  },
  "Rottnesfors, Värmland county, Sweden": {
    "formatted_address": "Varmland County, Sweden",
    "location": {
      "lat": 59.5807897,
      "lng": 12.8472974
    }
  },
  "Gunnarsberg, Värmland county, Sweden": {
    "formatted_address": "Varmland County, Sweden",
    "location": {
      "lat": 59.5807897,
      "lng": 12.8472974
    }
  },